{
  "updated": "2025-08-04T13:29:09.137Z",
  "updateTime": "2025/8/4 下午9:29:09",
  "totalShops": 337,
  "processingTimeMs": 58122,
  "searchArea": {
    "northwest": {
      "lat": 25.0955,
      "lng": 121.4436
    },
    "southeast": {
      "lat": 24.95,
      "lng": 121.6126
    },
    "gridSizeKm": 1.2
  },
  "districtStats": {
    "萬華區": 25,
    "大同區": 15,
    "士林區": 23,
    "中山區": 39,
    "大安區": 46,
    "信義區": 34,
    "內湖區": 49,
    "南港區": 14,
    "中正區": 29,
    "松山區": 29,
    "文山區": 34
  },
  "errors": [],
  "shops": [
    {
      "id": "ChIJC9bmhw6pQjQRMzLaT4VIVCo",
      "name": "富宏牛肉麵",
      "rating": 4.2,
      "userRatingCount": 20179,
      "formattedAddress": "108台灣台北市萬華區洛陽街67號",
      "location": {
        "latitude": 25.0476197,
        "longitude": 121.50773579999998
      },
      "district": "萬華區"
    },
    {
      "id": "ChIJRZgFyISpQjQRRZbdVCIDgNQ",
      "name": "林記牛肉麵",
      "rating": 4.7,
      "userRatingCount": 930,
      "formattedAddress": "103台灣台北市大同區延平北路三段26號",
      "location": {
        "latitude": 25.064199,
        "longitude": 121.51104500000001
      },
      "district": "大同區"
    },
    {
      "id": "ChIJY72JsTmvQjQRV2clLitxzTc",
      "name": "道品牛肉麵",
      "rating": 4.8,
      "userRatingCount": 642,
      "formattedAddress": "111台灣台北市士林區後港街204號",
      "location": {
        "latitude": 25.088336599999998,
        "longitude": 121.5206499
      },
      "district": "士林區"
    },
    {
      "id": "ChIJB7Vv6M6uQjQRJdr4VDzkXSQ",
      "name": "延平牛肉麵",
      "rating": 4,
      "userRatingCount": 824,
      "formattedAddress": "111台灣台北市士林區延平北路六段150巷1號",
      "location": {
        "latitude": 25.0896641,
        "longitude": 121.50692120000001
      },
      "district": "士林區"
    },
    {
      "id": "ChIJ97I3hw6pQjQRi8Xn6RLhbms",
      "name": "小吳牛肉麵",
      "rating": 4.2,
      "userRatingCount": 5162,
      "formattedAddress": "108台灣台北市萬華區洛陽街45-11號",
      "location": {
        "latitude": 25.047628399999997,
        "longitude": 121.508326
      },
      "district": "萬華區"
    },
    {
      "id": "ChIJmfAO5siuQjQRU6j6WgP6x1c",
      "name": "林江牛肉麵",
      "rating": 4.3,
      "userRatingCount": 655,
      "formattedAddress": "111台灣台北市士林區社中街130號",
      "location": {
        "latitude": 25.0901234,
        "longitude": 121.51024899999999
      },
      "district": "士林區"
    },
    {
      "id": "ChIJwU6Nmc-uQjQR5-9O10nyVk4",
      "name": "張牛肉麵水餃｜社子美食｜滷肉飯｜雞肉飯｜家常小吃",
      "rating": 3.8,
      "userRatingCount": 149,
      "formattedAddress": "111台灣台北市士林區社中街328號",
      "location": {
        "latitude": 25.092352599999998,
        "longitude": 121.5049716
      },
      "district": "士林區"
    },
    {
      "id": "ChIJ3wSQjkKvQjQRLxF4zSGlTrI",
      "name": "道品牛肉麵 士林夜市店",
      "rating": 5,
      "userRatingCount": 27,
      "formattedAddress": "111台灣台北市士林區大南路55號",
      "location": {
        "latitude": 25.089124899999998,
        "longitude": 121.52482
      },
      "district": "士林區"
    },
    {
      "id": "ChIJ5XNAv9GuQjQRO_-BEC--P_Y",
      "name": "典廚牛肉麵",
      "rating": 4.1,
      "userRatingCount": 119,
      "formattedAddress": "111台灣台北市士林區延平北路六段352號",
      "location": {
        "latitude": 25.0907181,
        "longitude": 121.5012532
      },
      "district": "士林區"
    },
    {
      "id": "ChIJdZVgNs-uQjQRbmMe1-08lD0",
      "name": "牟家麵食館",
      "rating": 4.1,
      "userRatingCount": 62,
      "formattedAddress": "111台灣台北市士林區社中街225號",
      "location": {
        "latitude": 25.0912027,
        "longitude": 121.50800989999999
      },
      "district": "士林區"
    },
    {
      "id": "ChIJn5eZqbauQjQRU0wDQFVAd4M",
      "name": "牛小妹牛肉麵",
      "rating": 3.8,
      "userRatingCount": 493,
      "formattedAddress": "111台灣台北市士林區華齡街88-1號",
      "location": {
        "latitude": 25.084815,
        "longitude": 121.51946989999999
      },
      "district": "士林區"
    },
    {
      "id": "ChIJ28NGFJmuQjQRF5KGl4Lz3Es",
      "name": "芝山岩牛肉麵",
      "rating": 4.2,
      "userRatingCount": 515,
      "formattedAddress": "111台灣台北市士林區大南路328號",
      "location": {
        "latitude": 25.0890332,
        "longitude": 121.5180674
      },
      "district": "士林區"
    },
    {
      "id": "ChIJyVTTNMmuQjQR-5tgN4mFcvU",
      "name": "赤牛蕃茄刀削牛肉麵",
      "rating": 4.1,
      "userRatingCount": 118,
      "formattedAddress": "111台灣台北市士林區延平北路六段88號",
      "location": {
        "latitude": 25.088785299999998,
        "longitude": 121.50853939999999
      },
      "district": "士林區"
    },
    {
      "id": "ChIJ4_lY4OOvQjQRux5VeW3fETA",
      "name": "楊伯伯牛肉麵",
      "rating": 5,
      "userRatingCount": 10,
      "formattedAddress": "111台灣台北市士林區承德路四段40段39號",
      "location": {
        "latitude": 25.0812113,
        "longitude": 121.5217251
      },
      "district": "士林區"
    },
    {
      "id": "ChIJp8zlTjCvQjQR0qLSVzfynTQ",
      "name": "士林夜市圓圈圈牛肉麵",
      "rating": 4.2,
      "userRatingCount": 23,
      "formattedAddress": "111台灣台北市士林區文林路101巷口號",
      "location": {
        "latitude": 25.0878844,
        "longitude": 121.52575970000001
      },
      "district": "士林區"
    },
    {
      "id": "ChIJMxYcL8-vQjQR37t2S1gHJqg",
      "name": "天東86牛肉麵-士林店",
      "rating": 4.5,
      "userRatingCount": 661,
      "formattedAddress": "111台灣台北市士林區文林路310號",
      "location": {
        "latitude": 25.0921149,
        "longitude": 121.52624859999999
      },
      "district": "士林區"
    },
    {
      "id": "ChIJFZkMh7quQjQR1Dm0lGmuQCQ",
      "name": "牛坊牛肉麵",
      "rating": 4.3,
      "userRatingCount": 290,
      "formattedAddress": "111台灣台北市士林區大南路237號",
      "location": {
        "latitude": 25.0883252,
        "longitude": 121.5207993
      },
      "district": "士林區"
    },
    {
      "id": "ChIJs1rAj-CvQjQRJ7a5l9JDj6E",
      "name": "成都牛肉麵",
      "rating": 4.1,
      "userRatingCount": 74,
      "formattedAddress": "111台灣台北市士林區福港街232號",
      "location": {
        "latitude": 25.085099399999997,
        "longitude": 121.51751530000001
      },
      "district": "士林區"
    },
    {
      "id": "ChIJYRbuUqOuQjQRx27doPZn6qg",
      "name": "牛有廖Beefull士林店",
      "rating": 3.9,
      "userRatingCount": 1081,
      "formattedAddress": "111台灣台北市士林區美德街16巷8號",
      "location": {
        "latitude": 25.094370400000003,
        "longitude": 121.5257114
      },
      "district": "士林區"
    },
    {
      "id": "ChIJb-tH2EyvQjQRCKT8SbRfJ1s",
      "name": "牛肉麵店",
      "formattedAddress": "111台灣台北市士林區大東路21之3號",
      "location": {
        "latitude": 25.088879,
        "longitude": 121.52483799999999
      },
      "district": "士林區"
    },
    {
      "id": "ChIJdagKqLquQjQRianLmPE5Nzo",
      "name": "大東路無名牛肉麵",
      "rating": 4.4,
      "userRatingCount": 87,
      "formattedAddress": "111台灣台北市士林區大東路21之2號",
      "location": {
        "latitude": 25.0887201,
        "longitude": 121.5250097
      },
      "district": "士林區"
    },
    {
      "id": "ChIJV8SlhlOtQjQRMuWbL_6zv9o",
      "name": "美福心牛肉麵",
      "rating": 4.3,
      "userRatingCount": 183,
      "formattedAddress": "104台灣台北市中山區北安路518巷2號",
      "location": {
        "latitude": 25.079531700000004,
        "longitude": 121.5459424
      },
      "district": "中山區"
    },
    {
      "id": "ChIJn0wDBQWsQjQRDw8JPqKv_wg",
      "name": "永昌蕃茄牛肉麵",
      "rating": 4.2,
      "userRatingCount": 303,
      "formattedAddress": "10462台灣台北市中山區大直街34巷2號",
      "location": {
        "latitude": 25.081583799999997,
        "longitude": 121.5461032
      },
      "district": "中山區"
    },
    {
      "id": "ChIJoaJyi_OtQjQRij_vbDuoCZc",
      "name": "轉角小麵店",
      "rating": 3.9,
      "userRatingCount": 149,
      "formattedAddress": "10491台灣台北市中山區大直街33巷1號",
      "location": {
        "latitude": 25.082172099999998,
        "longitude": 121.5465688
      },
      "district": "中山區"
    },
    {
      "id": "ChIJeZp53kSpQjQRcCtxpwUSaQY",
      "name": "鴻水餃牛肉麵",
      "rating": 4.3,
      "userRatingCount": 993,
      "formattedAddress": "10491台灣台北市中山區雙城街12號",
      "location": {
        "latitude": 25.0646399,
        "longitude": 121.5243228
      },
      "district": "中山區"
    },
    {
      "id": "ChIJL5QjRNurQjQRajrNGFKdLyM",
      "name": "牛肉麵．雞湯",
      "rating": 4.2,
      "userRatingCount": 4059,
      "formattedAddress": "106台灣台北市大安區敦化南路1段164號",
      "location": {
        "latitude": 25.043407199999997,
        "longitude": 121.54857729999999
      },
      "district": "大安區"
    },
    {
      "id": "ChIJRz3JQ9mrQjQR3gS-aReMoWU",
      "name": "林東芳牛肉麵",
      "rating": 3.9,
      "userRatingCount": 12011,
      "formattedAddress": "104台灣台北市中山區八德路二段322號",
      "location": {
        "latitude": 25.047252399999998,
        "longitude": 121.54307920000001
      },
      "district": "中山區"
    },
    {
      "id": "ChIJs7yuGACrQjQR6AWxlryCpj0",
      "name": "龍江牛肉麵館",
      "rating": 3.5,
      "userRatingCount": 97,
      "formattedAddress": "10491台灣台北市中山區龍江路356巷19號",
      "location": {
        "latitude": 25.0661427,
        "longitude": 121.54004549999999
      },
      "district": "中山區"
    },
    {
      "id": "ChIJT5Lgu7yrQjQR-4z6kZ30ZOc",
      "name": "半島牛肉麵",
      "rating": 4.8,
      "userRatingCount": 14138,
      "formattedAddress": "110台灣台北市信義區忠孝東路五段215巷23號",
      "location": {
        "latitude": 25.0419245,
        "longitude": 121.57029109999999
      },
      "district": "信義區"
    },
    {
      "id": "ChIJIbSm2ESpQjQRnaQJ1X-7B6w",
      "name": "玖五牛肉麵",
      "rating": 4.1,
      "userRatingCount": 1294,
      "formattedAddress": "10491台灣台北市中山區農安街16-1號",
      "location": {
        "latitude": 25.064853199999998,
        "longitude": 121.52452699999999
      },
      "district": "中山區"
    },
    {
      "id": "ChIJBURdpxOsQjQR5FAgzolISdU",
      "name": "金春發牛肉店 美麗華店",
      "rating": 4.1,
      "userRatingCount": 2177,
      "formattedAddress": "10491台灣台北市中山區北安路833號",
      "location": {
        "latitude": 25.0847011,
        "longitude": 121.55709329999999
      },
      "district": "中山區"
    },
    {
      "id": "ChIJoQnu0W6sQjQRpK9sKZ2-S7c",
      "name": "牛耳精緻麵館",
      "rating": 4.2,
      "userRatingCount": 2065,
      "formattedAddress": "114台灣台北市內湖區內湖路一段323巷16弄2號",
      "location": {
        "latitude": 25.083550799999998,
        "longitude": 121.56793139999999
      },
      "district": "內湖區"
    },
    {
      "id": "ChIJN_o0NgCtQjQRifsaP2mlQgg",
      "name": "銀月牛肉麵",
      "rating": 4.6,
      "userRatingCount": 14,
      "formattedAddress": "114台灣台北市內湖區內湖路一段285號2樓",
      "location": {
        "latitude": 25.0824173,
        "longitude": 121.56649449999999
      },
      "district": "內湖區"
    },
    {
      "id": "ChIJRcR3MWOsQjQRLLKNe8c9Fqw",
      "name": "牛閣精緻麵館-內科店",
      "rating": 4.5,
      "userRatingCount": 769,
      "formattedAddress": "114台灣台北市內湖區江南街71巷16弄74號",
      "location": {
        "latitude": 25.076218500000003,
        "longitude": 121.5788599
      },
      "district": "內湖區"
    },
    {
      "id": "ChIJKa-J5CytQjQRCYb_Kjef9AQ",
      "name": "江南牛肉麵",
      "rating": 4.6,
      "userRatingCount": 96,
      "formattedAddress": "114台灣台北市內湖區內湖路一段437巷4弄4號",
      "location": {
        "latitude": 25.0817052,
        "longitude": 121.5718999
      },
      "district": "內湖區"
    },
    {
      "id": "ChIJH0yo1m_QDRQRLdX5iHYlgaE",
      "name": "山西刀切蕃茄牛肉麵",
      "rating": 3.6,
      "userRatingCount": 768,
      "formattedAddress": "114台灣台北市內湖區內湖路一段393號",
      "location": {
        "latitude": 25.081880599999998,
        "longitude": 121.5703062
      },
      "district": "內湖區"
    },
    {
      "id": "ChIJ9aYPhgOtQjQRSLs9TAk6KlY",
      "name": "台北牛津牛雜湯",
      "rating": 3.8,
      "userRatingCount": 172,
      "formattedAddress": "114台灣台北市內湖區內湖路一段411巷9弄18號",
      "location": {
        "latitude": 25.0820363,
        "longitude": 121.5716564
      },
      "district": "內湖區"
    },
    {
      "id": "ChIJDdd2mG6sQjQR9kndTbUdXUE",
      "name": "達人麵館",
      "rating": 4,
      "userRatingCount": 550,
      "formattedAddress": "114台灣台北市內湖區環山路一段9巷7號",
      "location": {
        "latitude": 25.0829381,
        "longitude": 121.56600710000001
      },
      "district": "內湖區"
    },
    {
      "id": "ChIJJdPh_AqtQjQR5iJTIri_SIs",
      "name": "小周紅燒牛肉麵",
      "rating": 4.6,
      "userRatingCount": 234,
      "formattedAddress": "114台灣台北市內湖區文德路22巷48號1樓",
      "location": {
        "latitude": 25.0766259,
        "longitude": 121.58027029999998
      },
      "district": "內湖區"
    },
    {
      "id": "ChIJty6GmW6sQjQR5kLtaEZXYPw",
      "name": "明家精緻麵館",
      "rating": 4.1,
      "userRatingCount": 607,
      "formattedAddress": "114台灣台北市內湖區內湖路一段285巷8弄1-1號號",
      "location": {
        "latitude": 25.0826437,
        "longitude": 121.56612059999999
      },
      "district": "內湖區"
    },
    {
      "id": "ChIJ4Zhg82OsQjQR7bQxGHmwIxU",
      "name": "台記家傳手勁麵",
      "rating": 3.9,
      "userRatingCount": 1100,
      "formattedAddress": "114台灣台北市內湖區港墘路110號",
      "location": {
        "latitude": 25.0800109,
        "longitude": 121.5770692
      },
      "district": "內湖區"
    },
    {
      "id": "ChIJW14pbe2sQjQR19UcH88g7nk",
      "name": "老又新牛肉麵（內湖店）",
      "rating": 3.9,
      "userRatingCount": 584,
      "formattedAddress": "114台灣台北市內湖區成功路四段204號",
      "location": {
        "latitude": 25.084438,
        "longitude": 121.59555220000001
      },
      "district": "內湖區"
    },
    {
      "id": "ChIJRaqPRvSsQjQRDDQFVV_Rq1w",
      "name": "李家牛肉麵小吃攤",
      "rating": 4.3,
      "userRatingCount": 93,
      "formattedAddress": "114台灣台北市內湖區金龍路236號",
      "location": {
        "latitude": 25.0884918,
        "longitude": 121.58644319999999
      },
      "district": "內湖區"
    },
    {
      "id": "ChIJW_WuWQCtQjQRYCfdTkVMzcM",
      "name": "湖光原汁牛肉麵",
      "rating": 3.5,
      "userRatingCount": 180,
      "formattedAddress": "114台灣台北市內湖區康寧路一段53號",
      "location": {
        "latitude": 25.080390599999998,
        "longitude": 121.59210440000001
      },
      "district": "內湖區"
    },
    {
      "id": "ChIJTf4YkI2sQjQRIjDBJz27v_4",
      "name": "通化老師傅牛雜湯/牛肉麵",
      "rating": 4.1,
      "userRatingCount": 892,
      "formattedAddress": "114台灣台北市內湖區康寧路一段93號",
      "location": {
        "latitude": 25.0797222,
        "longitude": 121.59333330000001
      },
      "district": "內湖區"
    },
    {
      "id": "ChIJyxH_ZwCtQjQRnJxdRb2W5Gw",
      "name": "金湖375 牛肉麵店",
      "rating": 4.2,
      "userRatingCount": 109,
      "formattedAddress": "114台灣台北市內湖區金湖路375號",
      "location": {
        "latitude": 25.07336,
        "longitude": 121.60328569999999
      },
      "district": "內湖區"
    },
    {
      "id": "ChIJVQ6MEe2sQjQRajsR5ajz0uo",
      "name": "牛肉麵舖子",
      "rating": 3.7,
      "userRatingCount": 1137,
      "formattedAddress": "114台灣台北市內湖區成功路四段212號",
      "location": {
        "latitude": 25.084510899999998,
        "longitude": 121.59583310000001
      },
      "district": "內湖區"
    },
    {
      "id": "ChIJiUiGkY2sQjQR4Ju99FE_lmI",
      "name": "大佳牛雜湯",
      "rating": 4.5,
      "userRatingCount": 963,
      "formattedAddress": "114台灣台北市內湖區康寧路一段108號",
      "location": {
        "latitude": 25.0795654,
        "longitude": 121.59323609999998
      },
      "district": "內湖區"
    },
    {
      "id": "ChIJGaoqsYStQjQRB3SdhP7oTSY",
      "name": "東引快刀手 內湖店 -(人氣排隊美食、必吃午 晚餐 宵夜 滷味、平價麵館)",
      "rating": 4,
      "userRatingCount": 1407,
      "formattedAddress": "114台灣台北市內湖區民權東路六段288號",
      "location": {
        "latitude": 25.072339099999997,
        "longitude": 121.60530569999999
      },
      "district": "內湖區"
    },
    {
      "id": "ChIJSX1sQe2sQjQRxlnr6BVjyC8",
      "name": "山西蕃茄刀削麵 金湖店",
      "rating": 3.8,
      "userRatingCount": 610,
      "formattedAddress": "114台灣台北市內湖區金湖路5號",
      "location": {
        "latitude": 25.083822,
        "longitude": 121.595225
      },
      "district": "內湖區"
    },
    {
      "id": "ChIJY1C9vxitQjQR2vYKLi9DZV4",
      "name": "桃花源記牛肉麵專門店",
      "rating": 4.7,
      "userRatingCount": 678,
      "formattedAddress": "11483台灣台北市內湖區民權東路六段217號",
      "location": {
        "latitude": 25.067049299999997,
        "longitude": 121.5998574
      },
      "district": "內湖區"
    },
    {
      "id": "ChIJTxQ1kVyrQjQRofPsLn7WVN0",
      "name": "總裁牛肉麵-南港CITYLINK門市",
      "rating": 4.5,
      "userRatingCount": 326,
      "formattedAddress": "115台灣台北市南港區忠孝東路七段369號C棟7樓",
      "location": {
        "latitude": 25.052354899999997,
        "longitude": 121.60362459999999
      },
      "district": "南港區"
    },
    {
      "id": "ChIJP5As_MWrQjQRsk1gm6PGb6w",
      "name": "牛爸爸牛肉麵",
      "rating": 4.1,
      "userRatingCount": 769,
      "formattedAddress": "114台灣台北市內湖區民權東路六段149號一樓",
      "location": {
        "latitude": 25.0690383,
        "longitude": 121.594506
      },
      "district": "內湖區"
    },
    {
      "id": "ChIJS4vJ0jSpQjQRKNiskZ1_B80",
      "name": "品味原汁牛肉麵",
      "rating": 4.3,
      "userRatingCount": 18,
      "formattedAddress": "111台灣台北市士林區延平北路五段106號",
      "location": {
        "latitude": 25.081417000000002,
        "longitude": 121.51068740000001
      },
      "district": "士林區"
    },
    {
      "id": "ChIJfxKVD7OuQjQRggplcwuG3bM",
      "name": "豪記專業牛肉麵",
      "rating": 4.1,
      "userRatingCount": 508,
      "formattedAddress": "111台灣台北市士林區承德路四段40巷18號",
      "location": {
        "latitude": 25.080865799999998,
        "longitude": 121.52192689999998
      },
      "district": "士林區"
    },
    {
      "id": "ChIJ2zJ1CbOuQjQRLneY1_9SWJs",
      "name": "劍潭牛肉麵店",
      "rating": 4.1,
      "userRatingCount": 240,
      "formattedAddress": "111台灣台北市士林區通河街141巷1號",
      "location": {
        "latitude": 25.081052099999997,
        "longitude": 121.52082460000001
      },
      "district": "士林區"
    },
    {
      "id": "ChIJI8MGD7SuQjQROgGeoFbxJi4",
      "name": "中壢新明牛肉麵-士林華齡店",
      "rating": 3.7,
      "userRatingCount": 188,
      "formattedAddress": "111台灣台北市士林區華齡街39號",
      "location": {
        "latitude": 25.0838438,
        "longitude": 121.5193143
      },
      "district": "士林區"
    },
    {
      "id": "ChIJM7DPebGuQjQRnXcb9s_p55I",
      "name": "王艇長酢醬麵",
      "rating": 4.4,
      "userRatingCount": 1850,
      "formattedAddress": "111台灣台北市士林區前港街18號",
      "location": {
        "latitude": 25.084573799999998,
        "longitude": 121.5225126
      },
      "district": "士林區"
    },
    {
      "id": "ChIJux-SCFqpQjQR9xDFoWfvI-w",
      "name": "老外一品牛肉麵",
      "rating": 4.2,
      "userRatingCount": 1106,
      "formattedAddress": "10491台灣台北市中山區吉林路403號",
      "location": {
        "latitude": 25.065956699999997,
        "longitude": 121.53052129999999
      },
      "district": "中山區"
    },
    {
      "id": "ChIJmwqYjKutQjQRQonv2mbz3cg",
      "name": "山西刀削麵 （大直店）",
      "rating": 4.2,
      "userRatingCount": 596,
      "formattedAddress": "104237台灣台北市中山區北安路563號",
      "location": {
        "latitude": 25.080629,
        "longitude": 121.54800320000001
      },
      "district": "中山區"
    },
    {
      "id": "ChIJGYqLF5ypQjQRfwo9NqDO-do",
      "name": "晴光牛肉麵",
      "rating": 4.5,
      "userRatingCount": 477,
      "formattedAddress": "104台灣台北市中山區德惠街48號",
      "location": {
        "latitude": 25.0665417,
        "longitude": 121.5270387
      },
      "district": "中山區"
    },
    {
      "id": "ChIJJ3RI4gSsQjQRb9dC8Xm1YuY",
      "name": "兄弟麵館",
      "rating": 4,
      "userRatingCount": 1848,
      "formattedAddress": "104台灣台北市中山區大直街46巷36號",
      "location": {
        "latitude": 25.082045500000003,
        "longitude": 121.545362
      },
      "district": "中山區"
    },
    {
      "id": "ChIJN6JwEI-pQjQRaPg1dV1Y2pk",
      "name": "湯神—頂級和牛牛肉麵",
      "rating": 4.6,
      "userRatingCount": 1723,
      "formattedAddress": "106台灣台北市大安區八德路二段11號",
      "location": {
        "latitude": 25.044603,
        "longitude": 121.533443
      },
      "district": "大安區"
    },
    {
      "id": "ChIJt_-mmfOpQjQRxCF22lb5vsU",
      "name": "小巷子清燉牛肉麵台北四平店",
      "rating": 4.7,
      "userRatingCount": 853,
      "formattedAddress": "104472台灣台北市中山區四平街40號",
      "location": {
        "latitude": 25.0535994,
        "longitude": 121.5321189
      },
      "district": "中山區"
    },
    {
      "id": "ChIJ9xvVpHypQjQRw7IklYPK8oo",
      "name": "玖伍牛肉麵",
      "rating": 4,
      "userRatingCount": 2844,
      "formattedAddress": "100台灣台北市中正區八德路一段82巷8號1樓",
      "location": {
        "latitude": 25.0437619,
        "longitude": 121.5319688
      },
      "district": "中正區"
    },
    {
      "id": "ChIJVbXrKgCtQjQRSyVIG61AjnY",
      "name": "百味麵坊-內科店(各國精緻麵食)",
      "rating": 4.9,
      "userRatingCount": 59,
      "formattedAddress": "114台灣台北市內湖區內湖路一段437巷4弄4號",
      "location": {
        "latitude": 25.081779299999997,
        "longitude": 121.571924
      },
      "district": "內湖區"
    },
    {
      "id": "ChIJ8ehj7GWsQjQRW776JasFz1U",
      "name": "兄弟麵館內湖店",
      "rating": 4.4,
      "userRatingCount": 924,
      "formattedAddress": "114台灣台北市內湖區麗山街393巷12號",
      "location": {
        "latitude": 25.0816965,
        "longitude": 121.5722566
      },
      "district": "內湖區"
    },
    {
      "id": "ChIJzWjUJXCtQjQRpwqoZQmZZG0",
      "name": "賀甲小館",
      "rating": 4.7,
      "userRatingCount": 121,
      "formattedAddress": "114台灣台北市內湖區內湖路一段323巷4弄5號1樓",
      "location": {
        "latitude": 25.082798699999998,
        "longitude": 121.56767289999998
      },
      "district": "內湖區"
    },
    {
      "id": "ChIJOaOJkW6sQjQR5n18UnF_o5E",
      "name": "二哥的店 黃牛肉麵",
      "rating": 3.1,
      "userRatingCount": 187,
      "formattedAddress": "114台灣台北市內湖區內湖路一段285號2樓",
      "location": {
        "latitude": 25.0824173,
        "longitude": 121.56649449999999
      },
      "district": "內湖區"
    },
    {
      "id": "ChIJNelO4jitQjQRx1xiR2MQ39E",
      "name": "延三溫體牛-李記",
      "rating": 4.1,
      "userRatingCount": 199,
      "formattedAddress": "114台灣台北市內湖區港墘路82巷3號",
      "location": {
        "latitude": 25.0809647,
        "longitude": 121.57749949999999
      },
      "district": "內湖區"
    },
    {
      "id": "ChIJUwnv6q6tQjQRFiJVFn3igfY",
      "name": "牛將軍小館",
      "rating": 4.2,
      "userRatingCount": 505,
      "formattedAddress": "114台灣台北市內湖區內湖路一段600巷8號",
      "location": {
        "latitude": 25.0783311,
        "longitude": 121.57798129999999
      },
      "district": "內湖區"
    },
    {
      "id": "ChIJHyhAlIitQjQRU-qnxn0DUy4",
      "name": "鄧家牛肉麵內湖店",
      "rating": 4,
      "userRatingCount": 260,
      "formattedAddress": "114台灣台北市內湖區文德路22巷9弄74號",
      "location": {
        "latitude": 25.0765504,
        "longitude": 121.5794834
      },
      "district": "內湖區"
    },
    {
      "id": "ChIJI2fxWmOsQjQReDU2-Jd7QgE",
      "name": "牛上野番茄牛肉麵",
      "rating": 4.2,
      "userRatingCount": 464,
      "formattedAddress": "11474台灣台北市內湖區江南街71巷6號",
      "location": {
        "latitude": 25.0770302,
        "longitude": 121.5776091
      },
      "district": "內湖區"
    },
    {
      "id": "ChIJwR4GmmOsQjQRPuezqIdCLA4",
      "name": "阿香麵店",
      "rating": 4.3,
      "userRatingCount": 20,
      "formattedAddress": "114台灣台北市內湖區內湖路一段737巷8弄8號",
      "location": {
        "latitude": 25.0793929,
        "longitude": 121.5780189
      },
      "district": "內湖區"
    },
    {
      "id": "ChIJr9Kr0jqtQjQRJ2vlzo_NOrg",
      "name": "內湖 御牛館",
      "rating": 4.7,
      "userRatingCount": 54,
      "formattedAddress": "114台灣台北市內湖區瑞光路393巷8號自由美食廣場 第10號攤位",
      "location": {
        "latitude": 25.0785808,
        "longitude": 121.5729068
      },
      "district": "內湖區"
    },
    {
      "id": "ChIJjeMzumOsQjQRJyhOYqpXwUA",
      "name": "七三七老山東牛肉麵",
      "rating": 3.6,
      "userRatingCount": 197,
      "formattedAddress": "114台灣台北市內湖區內湖路一段737巷33弄3號",
      "location": {
        "latitude": 25.079548499999998,
        "longitude": 121.5789401
      },
      "district": "內湖區"
    },
    {
      "id": "ChIJqYzDBO6tQjQRBRbCYRSLkU8",
      "name": "高雄五福扁食 K.H.Wufu 內湖港墘店 /內湖美食/內湖小吃/得獎滷肉飯/紅油抄手/牛肉麵地圖店家/扁食麵/餛飩麵/外國雜誌專訪店家",
      "rating": 4.5,
      "userRatingCount": 619,
      "formattedAddress": "114台灣台北市內湖區內湖路一段591巷11弄6號",
      "location": {
        "latitude": 25.0814034,
        "longitude": 121.5736891
      },
      "district": "內湖區"
    },
    {
      "id": "ChIJXYbqZTitQjQRJWS8yu8EawY",
      "name": "有面子鍋燒麵",
      "rating": 4.7,
      "userRatingCount": 880,
      "formattedAddress": "114台灣台北市內湖區內湖路二段410號",
      "location": {
        "latitude": 25.083102399999998,
        "longitude": 121.591842
      },
      "district": "內湖區"
    },
    {
      "id": "ChIJRRehd86tQjQRBoofCoNdyEw",
      "name": "阿通師私房牛肉麵",
      "rating": 4.4,
      "userRatingCount": 134,
      "formattedAddress": "114台灣台北市內湖區康寧路三段165巷14弄10號",
      "location": {
        "latitude": 25.070777699999997,
        "longitude": 121.61216709999998
      },
      "district": "內湖區"
    },
    {
      "id": "ChIJHZ7lHSetQjQRuhPSRB3xIwM",
      "name": "家辣麻辣鴨血/銀牌牛肉麵～東湖店",
      "rating": 4.2,
      "userRatingCount": 24,
      "formattedAddress": "114台灣台北市內湖區康寧路三段99巷33號",
      "location": {
        "latitude": 25.0725333,
        "longitude": 121.6103477
      },
      "district": "內湖區"
    },
    {
      "id": "ChIJleenfbusQjQRmLY5gam6JhY",
      "name": "明湖上品牛肉麵",
      "rating": 3.8,
      "userRatingCount": 504,
      "formattedAddress": "114台灣台北市內湖區康寧路三段153號",
      "location": {
        "latitude": 25.0705836,
        "longitude": 121.61147679999999
      },
      "district": "內湖區"
    },
    {
      "id": "ChIJHwhqZQ6pQjQRotxy6EI5PHE",
      "name": "采宏牛肉麵-原建宏牛肉麵",
      "rating": 3.7,
      "userRatingCount": 8958,
      "formattedAddress": "108台灣台北市萬華區西寧南路27號",
      "location": {
        "latitude": 25.0478727,
        "longitude": 121.50751790000001
      },
      "district": "萬華區"
    },
    {
      "id": "ChIJOyUgTzipQjQRIq9QlecGiCc",
      "name": "賣麵郎 刀切牛肉麵館",
      "rating": 3.9,
      "userRatingCount": 867,
      "formattedAddress": "103台灣台北市大同區民族西路241號",
      "location": {
        "latitude": 25.068786199999998,
        "longitude": 121.5119109
      },
      "district": "大同區"
    },
    {
      "id": "ChIJ4dof3TepQjQRLqzMGT7iBn8",
      "name": "劉家牛肉麵",
      "rating": 4.4,
      "userRatingCount": 333,
      "formattedAddress": "103台灣台北市大同區重慶北路三段268號",
      "location": {
        "latitude": 25.0716456,
        "longitude": 121.5135447
      },
      "district": "大同區"
    },
    {
      "id": "ChIJKevibp6pQjQR9ymEeO-vrFU",
      "name": "許肥牛肉麵",
      "rating": 4.5,
      "userRatingCount": 263,
      "formattedAddress": "103台灣台北市大同區民族西路223-4號",
      "location": {
        "latitude": 25.0687575,
        "longitude": 121.51291769999999
      },
      "district": "大同區"
    },
    {
      "id": "ChIJy8WCLDmpQjQRYTwsX9IVH6Y",
      "name": "新營人牛肉",
      "rating": 3.7,
      "userRatingCount": 1329,
      "formattedAddress": "103台灣台北市大同區延平北路三段80號",
      "location": {
        "latitude": 25.0658051,
        "longitude": 121.51092539999999
      },
      "district": "大同區"
    },
    {
      "id": "ChIJk7jHQUipQjQRAtVUlxmMjUA",
      "name": "吉利 牛肉麵.水餃",
      "rating": 3.7,
      "userRatingCount": 547,
      "formattedAddress": "103台灣台北市大同區大龍街282號",
      "location": {
        "latitude": 25.0710028,
        "longitude": 121.5158229
      },
      "district": "大同區"
    },
    {
      "id": "ChIJzQJvTkapQjQR15_n2qiK8Hk",
      "name": "老地方牛肉麵(USUAL PLACE)",
      "rating": 4.4,
      "userRatingCount": 1496,
      "formattedAddress": "103台灣台北市大同區大龍街91巷33號",
      "location": {
        "latitude": 25.067347599999998,
        "longitude": 121.5173978
      },
      "district": "大同區"
    },
    {
      "id": "ChIJQVOQAgCpQjQRg5gXeEUcbtU",
      "name": "她奶奶的牛肉麵",
      "rating": 5,
      "userRatingCount": 2,
      "formattedAddress": "10491台灣台北市中山區玉門街1號",
      "location": {
        "latitude": 25.0690889,
        "longitude": 121.5221019
      },
      "district": "中山區"
    },
    {
      "id": "ChIJ6ex44w6pQjQRKDy7gdCfAdQ",
      "name": "美濃現做刀切牛肉麵",
      "rating": 4.2,
      "userRatingCount": 1452,
      "formattedAddress": "103台灣台北市大同區西寧北路19-2號",
      "location": {
        "latitude": 25.052761999999998,
        "longitude": 121.50874200000001
      },
      "district": "大同區"
    },
    {
      "id": "ChIJXaAy2EGpQjQR7fFB9Z9buSo",
      "name": "老地方牛肉麵",
      "rating": 4,
      "userRatingCount": 281,
      "formattedAddress": "10365台灣台北市大同區酒泉街10巷11號1樓",
      "location": {
        "latitude": 25.0703604,
        "longitude": 121.51977099999998
      },
      "district": "大同區"
    },
    {
      "id": "ChIJxSH1TC-pQjQRRDICH_xBpIA",
      "name": "屏東牛肉麵",
      "rating": 3.2,
      "userRatingCount": 29,
      "formattedAddress": "103台灣台北市大同區延平北路三段52號",
      "location": {
        "latitude": 25.064931899999998,
        "longitude": 121.51097959999998
      },
      "district": "大同區"
    },
    {
      "id": "ChIJVatHTUapQjQRlp-WfRTLr_c",
      "name": "小林麵食店",
      "rating": 4.1,
      "userRatingCount": 606,
      "formattedAddress": "103台灣台北市大同區大龍街91巷17-2號",
      "location": {
        "latitude": 25.0674022,
        "longitude": 121.51708199999999
      },
      "district": "大同區"
    },
    {
      "id": "ChIJs8O4umWpQjQR7Ff1VT7As7Y",
      "name": "郁誠牛肉麵",
      "rating": 4.4,
      "userRatingCount": 823,
      "formattedAddress": "104台灣台北市中山區中山北路二段116巷2-7號",
      "location": {
        "latitude": 25.060791,
        "longitude": 121.52198599999998
      },
      "district": "中山區"
    },
    {
      "id": "ChIJvQo4jUmpQjQRuFn7JghUIEA",
      "name": "寶師傅私房牛肉麵",
      "rating": 4.1,
      "userRatingCount": 641,
      "formattedAddress": "103台灣台北市大同區哈密街59巷14號",
      "location": {
        "latitude": 25.074451099999997,
        "longitude": 121.5156486
      },
      "district": "大同區"
    },
    {
      "id": "ChIJV6dngdOpQjQR7WqwZFnhCvY",
      "name": "貳月牛肉麵",
      "rating": 4.6,
      "userRatingCount": 113,
      "formattedAddress": "10491台灣台北市中山區雙城街2之1號",
      "location": {
        "latitude": 25.0632076,
        "longitude": 121.5242704
      },
      "district": "中山區"
    },
    {
      "id": "ChIJnWd578WpQjQRJeL8Rr3QHQc",
      "name": "將町牛肉麵館",
      "rating": 4.8,
      "userRatingCount": 158,
      "formattedAddress": "104台灣台北市中山區建國北路三段113巷11號1樓",
      "location": {
        "latitude": 25.067097000000004,
        "longitude": 121.53610390000001
      },
      "district": "中山區"
    },
    {
      "id": "ChIJ2fnalTKpQjQR53UKq36AAbE",
      "name": "府順番茄刀削牛肉麵",
      "rating": 4.5,
      "userRatingCount": 317,
      "formattedAddress": "104台灣台北市中山區撫順街41巷1-7號",
      "location": {
        "latitude": 25.0639848,
        "longitude": 121.5193807
      },
      "district": "中山區"
    },
    {
      "id": "ChIJ8W2ixcyrQjQRGjuprLelE00",
      "name": "金春發牛肉店 發火鍋-復北店",
      "rating": 4.6,
      "userRatingCount": 1541,
      "formattedAddress": "104台灣台北市中山區復興北路202號",
      "location": {
        "latitude": 25.055636399999997,
        "longitude": 121.54386029999999
      },
      "district": "中山區"
    },
    {
      "id": "ChIJfxh0FQCrQjQRNyD6BBBaY6g",
      "name": "湘園牛肉麵",
      "rating": 5,
      "userRatingCount": 5,
      "formattedAddress": "104台灣台北市中山區合江街102巷2-4號",
      "location": {
        "latitude": 25.058617899999998,
        "longitude": 121.53910049999999
      },
      "district": "中山區"
    },
    {
      "id": "ChIJ1YzqYwCrQjQRkEb3y_zj7YE",
      "name": "洛毅牛肉麵館",
      "rating": 4.8,
      "userRatingCount": 75,
      "formattedAddress": "105台灣台北市松山區敦化北路222巷16-1號",
      "location": {
        "latitude": 25.059193999999998,
        "longitude": 121.548069
      },
      "district": "松山區"
    },
    {
      "id": "ChIJ_znI0WepQjQRwu22Z0zjwP8",
      "name": "京樺牛肉麵水餃專賣店",
      "rating": 4.3,
      "userRatingCount": 183,
      "formattedAddress": "104台灣台北市中山區林森北路259巷9-3號",
      "location": {
        "latitude": 25.054388,
        "longitude": 121.5263046
      },
      "district": "中山區"
    },
    {
      "id": "ChIJtex1HG-pQjQRyngJ2YNbAso",
      "name": "玖伍牛肉麵",
      "rating": 3.8,
      "userRatingCount": 1326,
      "formattedAddress": "10491台灣台北市中山區天津街51號",
      "location": {
        "latitude": 25.050449999999998,
        "longitude": 121.5232167
      },
      "district": "中山區"
    },
    {
      "id": "ChIJ7RYZytOrQjQRMn0J-DXtnUk",
      "name": "老楊在二樓 私廚牛肉麵",
      "rating": 4.5,
      "userRatingCount": 218,
      "formattedAddress": "105台灣台北市松山區新中街9號二樓",
      "location": {
        "latitude": 25.0576451,
        "longitude": 121.5605063
      },
      "district": "松山區"
    },
    {
      "id": "ChIJtbg6XZKrQjQRIeVUt3Mo-Wc",
      "name": "You&me牛肉麵Bar",
      "rating": 4.2,
      "userRatingCount": 585,
      "formattedAddress": "105台灣台北市松山區延壽街145號",
      "location": {
        "latitude": 25.056980700000004,
        "longitude": 121.56327170000002
      },
      "district": "松山區"
    },
    {
      "id": "ChIJy7QpmuOrQjQR6kcLa3q5duE",
      "name": "志明牛肉麵 錦州店",
      "rating": 4.2,
      "userRatingCount": 1102,
      "formattedAddress": "10491台灣台北市中山區錦州街413號",
      "location": {
        "latitude": 25.0603595,
        "longitude": 121.5416455
      },
      "district": "中山區"
    },
    {
      "id": "ChIJGzcwKMmrQjQRUhM2yNA7ZWA",
      "name": "民生牛肉麵",
      "rating": 4.8,
      "userRatingCount": 220,
      "formattedAddress": "105台灣台北市松山區三民路180巷49號",
      "location": {
        "latitude": 25.0626905,
        "longitude": 121.56517110000001
      },
      "district": "松山區"
    },
    {
      "id": "ChIJqx65WnmrQjQRbtUBGHUMaW4",
      "name": "擱呷牛肉麵Gejia Beef noodle soup— 紅燒｜清燉｜麻辣｜拌麵｜秘制滷味｜麵店｜松山美食",
      "rating": 4.3,
      "userRatingCount": 172,
      "formattedAddress": "105台灣台北市松山區吉祥路45號",
      "location": {
        "latitude": 25.0501291,
        "longitude": 121.5626318
      },
      "district": "松山區"
    },
    {
      "id": "ChIJoeG-BpSrQjQRxAW5R4IQT6g",
      "name": "東引小吃店",
      "rating": 4.2,
      "userRatingCount": 6709,
      "formattedAddress": "105台灣台北市松山區南京東路五段291巷20弄3-2號",
      "location": {
        "latitude": 25.0525099,
        "longitude": 121.5658905
      },
      "district": "松山區"
    },
    {
      "id": "ChIJR_yEfpmrQjQR9cG0QJN2bDs",
      "name": "齒牛香牛肉麵",
      "rating": 3.5,
      "userRatingCount": 1300,
      "formattedAddress": "105台灣台北市松山區饒河街104號",
      "location": {
        "latitude": 25.0502844,
        "longitude": 121.57453729999999
      },
      "district": "松山區"
    },
    {
      "id": "ChIJ6V3DAwCtQjQRazE7EnXPX4k",
      "name": "東引小吃店-內湖店 （內湖瑞光店 牛肉麵 滷味 台北宵夜）",
      "rating": 4.7,
      "userRatingCount": 273,
      "formattedAddress": "114036台灣台北市內湖區瑞光路293號",
      "location": {
        "latitude": 25.075638899999998,
        "longitude": 121.5763836
      },
      "district": "內湖區"
    },
    {
      "id": "ChIJn2zoSHusQjQRazdgFFXnjtU",
      "name": "家鄉牛肉麵",
      "rating": 3.7,
      "userRatingCount": 407,
      "formattedAddress": "114台灣台北市內湖區江南街104號",
      "location": {
        "latitude": 25.076956799999998,
        "longitude": 121.57675300000001
      },
      "district": "內湖區"
    },
    {
      "id": "ChIJVwvRHYWsQjQR2ZpBlIN_vjM",
      "name": "陳三Chen*3 Bistro",
      "rating": 4.8,
      "userRatingCount": 274,
      "formattedAddress": "11494台灣台北市內湖區民權東路六段123巷34弄21-1號",
      "location": {
        "latitude": 25.070497399999997,
        "longitude": 121.59228859999999
      },
      "district": "內湖區"
    },
    {
      "id": "ChIJHdfWLYGsQjQR5os1tAWZz5g",
      "name": "小牛哥原汁牛肉麵",
      "rating": 3.9,
      "userRatingCount": 309,
      "formattedAddress": "114台灣台北市內湖區民權東路六段90巷3號",
      "location": {
        "latitude": 25.068660299999998,
        "longitude": 121.58608509999998
      },
      "district": "內湖區"
    },
    {
      "id": "ChIJbf6GjoOsQjQRCeT75zu9LUc",
      "name": "永成牛肉麵",
      "rating": 4.1,
      "userRatingCount": 221,
      "formattedAddress": "114台灣台北市內湖區成功路二段320巷6號",
      "location": {
        "latitude": 25.0675164,
        "longitude": 121.59016369999999
      },
      "district": "內湖區"
    },
    {
      "id": "ChIJQ4fGxoWsQjQROcs7fGRh4Pw",
      "name": "小剛北方小館",
      "rating": 3.9,
      "userRatingCount": 499,
      "formattedAddress": "114台灣台北市內湖區成功路二段436號",
      "location": {
        "latitude": 25.071752,
        "longitude": 121.58953400000001
      },
      "district": "內湖區"
    },
    {
      "id": "ChIJP5aDU4WsQjQRzeT0HjK4O_8",
      "name": "老董牛肉麵",
      "rating": 3.9,
      "userRatingCount": 203,
      "formattedAddress": "114台灣台北市內湖區成功路二段325號B1",
      "location": {
        "latitude": 25.0720264,
        "longitude": 121.594036
      },
      "district": "內湖區"
    },
    {
      "id": "ChIJrw2KgA6pQjQRW_wAf66dTf8",
      "name": "建宏牛肉麵",
      "rating": 4.2,
      "userRatingCount": 3126,
      "formattedAddress": "108台灣台北市萬華區洛陽街45之6號",
      "location": {
        "latitude": 25.047455,
        "longitude": 121.50826699999999
      },
      "district": "萬華區"
    },
    {
      "id": "ChIJl83CT2upQjQREwdle7JX2vA",
      "name": "飄香牛肉麵館",
      "rating": 4.2,
      "userRatingCount": 1115,
      "formattedAddress": "103台灣台北市大同區寧夏路12號1樓",
      "location": {
        "latitude": 25.0546535,
        "longitude": 121.51474850000001
      },
      "district": "大同區"
    },
    {
      "id": "ChIJ_eESvxepQjQR0ZXUXcYOC1o",
      "name": "賓 果 牛肉麵 海鮮麵 滷肉飯",
      "rating": 4.6,
      "userRatingCount": 365,
      "formattedAddress": "108台灣台北市萬華區漢口街二段32號",
      "location": {
        "latitude": 25.045448099999998,
        "longitude": 121.5074273
      },
      "district": "萬華區"
    },
    {
      "id": "ChIJsfgT_pGpQjQRKj8tdSHQ9KM",
      "name": "金順牛肉麵水餃大王",
      "rating": 4.7,
      "userRatingCount": 926,
      "formattedAddress": "104台灣台北市中山區民生西路205號",
      "location": {
        "latitude": 25.057263,
        "longitude": 121.51654500000001
      },
      "district": "中山區"
    },
    {
      "id": "ChIJkVdTXBWpQjQR1hjvdEWz_sE",
      "name": "五十年老店 真正牛肉麵",
      "rating": 3.8,
      "userRatingCount": 194,
      "formattedAddress": "103台灣台北市大同區保安街25號",
      "location": {
        "latitude": 25.059251,
        "longitude": 121.5127241
      },
      "district": "大同區"
    },
    {
      "id": "ChIJq6qqqgasQjQRoj3bGAmbKmQ",
      "name": "和妹麵店",
      "rating": 4,
      "userRatingCount": 2563,
      "formattedAddress": "104台灣台北市中山區吉林路121號",
      "location": {
        "latitude": 25.057091000000003,
        "longitude": 121.53033800000001
      },
      "district": "中山區"
    },
    {
      "id": "ChIJ90Nsj1mpQjQRoipskcSx0uk",
      "name": "無名麵攤",
      "rating": 4.2,
      "userRatingCount": 308,
      "formattedAddress": "10491台灣台北市中山區民權東路二段71巷33號",
      "location": {
        "latitude": 25.0639725,
        "longitude": 121.53179560000001
      },
      "district": "中山區"
    },
    {
      "id": "ChIJKzC5bQCpQjQRgDDrqqIkx9Y",
      "name": "萬流芳正宗原汁牛肉麵",
      "rating": 4.6,
      "userRatingCount": 225,
      "formattedAddress": "10491台灣台北市中山區民生東路二段18號",
      "location": {
        "latitude": 25.0579073,
        "longitude": 121.5283853
      },
      "district": "中山區"
    },
    {
      "id": "ChIJrdw2UU-pQjQRQvW1fN-D5dk",
      "name": "難得一面 Beef noodles- 青花椒/大紅袍、超濃蕃茄、麻辣牛肉麵/乾拌麵，重磅蛤蜊麵",
      "rating": 4.7,
      "userRatingCount": 343,
      "formattedAddress": "10446台灣台北市中山區中山北路二段59巷41弄3號",
      "location": {
        "latitude": 25.056006600000003,
        "longitude": 121.5245006
      },
      "district": "中山區"
    },
    {
      "id": "ChIJ7XZhmV2pQjQRgP1HOd75EvM",
      "name": "廖家牛肉麵",
      "rating": 3.9,
      "userRatingCount": 2066,
      "formattedAddress": "104台灣台北市中山區中原街41號",
      "location": {
        "latitude": 25.056995699999998,
        "longitude": 121.5289402
      },
      "district": "中山區"
    },
    {
      "id": "ChIJibj6MdWpQjQRi8g3PAknEeU",
      "name": "巧合珍牛肉麵（長春店）",
      "rating": 4.5,
      "userRatingCount": 437,
      "formattedAddress": "104台灣台北市中山區長春路149-3號",
      "location": {
        "latitude": 25.0549628,
        "longitude": 121.5325701
      },
      "district": "中山區"
    },
    {
      "id": "ChIJo--aBuurQjQRyN89ig3p_vM",
      "name": "大膽牛腩麵",
      "rating": 4.4,
      "userRatingCount": 725,
      "formattedAddress": "10478台灣台北市中山區遼寧街222號",
      "location": {
        "latitude": 25.056355,
        "longitude": 121.5420226
      },
      "district": "中山區"
    },
    {
      "id": "ChIJ04wSQKCrQjQR_D9BoQs5RPA",
      "name": "膳牛堂",
      "rating": 4.9,
      "userRatingCount": 518,
      "formattedAddress": "104083台灣台北市中山區合江街102巷15號1樓",
      "location": {
        "latitude": 25.0588423,
        "longitude": 121.53835260000001
      },
      "district": "中山區"
    },
    {
      "id": "ChIJy-PoScKrQjQRT1mDz7DUDoc",
      "name": "老楊山東牛肉麵（沒賣牛肉麵）",
      "rating": 4.4,
      "userRatingCount": 159,
      "formattedAddress": "105台灣台北市松山區八德路三段76號2樓",
      "location": {
        "latitude": 25.047922099999997,
        "longitude": 121.55275209999999
      },
      "district": "松山區"
    },
    {
      "id": "ChIJN9WUreerQjQRRlitWQain5I",
      "name": "西蜀饌牛肉麵",
      "rating": 4.4,
      "userRatingCount": 828,
      "formattedAddress": "105台灣台北市松山區敦化北路120巷78之2號",
      "location": {
        "latitude": 25.0542557,
        "longitude": 121.54630669999997
      },
      "district": "松山區"
    },
    {
      "id": "ChIJZ9PLeZqrQjQR5A9V3xca_kw",
      "name": "虎笑麵屋 無訂位服務",
      "rating": 4.4,
      "userRatingCount": 1402,
      "formattedAddress": "105台灣台北市松山區三民路113巷18號1樓",
      "location": {
        "latitude": 25.0580562,
        "longitude": 121.5622329
      },
      "district": "松山區"
    },
    {
      "id": "ChIJtTXqUPqrQjQRxXgQT5GB_WM",
      "name": "蜀渝牛肉麵",
      "rating": 4.7,
      "userRatingCount": 289,
      "formattedAddress": "105台灣台北市松山區南京東路五段23巷6弄1號",
      "location": {
        "latitude": 25.052237299999998,
        "longitude": 121.5581324
      },
      "district": "松山區"
    },
    {
      "id": "ChIJgR8pyeurQjQRGVBiCuDIfow",
      "name": "正宗老陳牛肉麵",
      "rating": 4.2,
      "userRatingCount": 634,
      "formattedAddress": "105台灣台北市松山區南京東路四段133巷7弄2號",
      "location": {
        "latitude": 25.052876299999998,
        "longitude": 121.55520920000001
      },
      "district": "松山區"
    },
    {
      "id": "ChIJ2Y26_ZGrQjQRydZ2Flomf1s",
      "name": "5號麵館",
      "rating": 4,
      "userRatingCount": 291,
      "formattedAddress": "105台灣台北市松山區新東街5號",
      "location": {
        "latitude": 25.0576734,
        "longitude": 121.56597610000001
      },
      "district": "松山區"
    },
    {
      "id": "ChIJfQ5DcQCrQjQRr17if4VPygg",
      "name": "92番茄牛肉麵",
      "rating": 3.7,
      "userRatingCount": 46,
      "formattedAddress": "105台灣台北市松山區三民路113巷9號",
      "location": {
        "latitude": 25.057855399999998,
        "longitude": 121.56299930000002
      },
      "district": "松山區"
    },
    {
      "id": "ChIJVdo3fD6rQjQRH-452PTMn04",
      "name": "張媽媽牛肉麵 民生店",
      "rating": 4.1,
      "userRatingCount": 436,
      "formattedAddress": "105台灣台北市松山區民生東路五段138巷13號",
      "location": {
        "latitude": 25.0579699,
        "longitude": 121.5617379
      },
      "district": "松山區"
    },
    {
      "id": "ChIJUahmDo6rQjQRf2NTI5JdeZ4",
      "name": "蕭家牛雜湯",
      "rating": 4.3,
      "userRatingCount": 2407,
      "formattedAddress": "105台灣台北市松山區新東街26巷1號",
      "location": {
        "latitude": 25.058723399999998,
        "longitude": 121.5660612
      },
      "district": "松山區"
    },
    {
      "id": "ChIJu1cOjqWrQjQRSNGEerEVJss",
      "name": "紅燒牛肉麵",
      "rating": 3,
      "userRatingCount": 105,
      "formattedAddress": "105台灣台北市松山區饒河街",
      "location": {
        "latitude": 25.0502443,
        "longitude": 121.5730201
      },
      "district": "松山區"
    },
    {
      "id": "ChIJrT8wLoyrQjQRHjeYo970qPI",
      "name": "中華牛肉麵",
      "rating": 4.1,
      "userRatingCount": 258,
      "formattedAddress": "105台灣台北市松山區富錦街523號",
      "location": {
        "latitude": 25.061178899999998,
        "longitude": 121.56487839999998
      },
      "district": "松山區"
    },
    {
      "id": "ChIJgcKSm4arQjQR0JKgesBQu9g",
      "name": "愛.熟成21牛肉麵",
      "rating": 3.7,
      "userRatingCount": 908,
      "formattedAddress": "114台灣台北市內湖區民善街128號",
      "location": {
        "latitude": 25.061314400000004,
        "longitude": 121.57493799999997
      },
      "district": "內湖區"
    },
    {
      "id": "ChIJiQ8VxoarQjQREoY58aZxkoQ",
      "name": "品川蘭 內湖店",
      "rating": 3.8,
      "userRatingCount": 1044,
      "formattedAddress": "11494台灣台北市內湖區舊宗路一段188號大全聯 內湖店",
      "location": {
        "latitude": 25.0623838,
        "longitude": 121.5760947
      },
      "district": "內湖區"
    },
    {
      "id": "ChIJp5hhv8SrQjQRFuS5z6SuApw",
      "name": "貝金文牛肉麵",
      "rating": 4.4,
      "userRatingCount": 133,
      "formattedAddress": "110台灣台北市信義區松山路182號1樓",
      "location": {
        "latitude": 25.046021000000003,
        "longitude": 121.57760399999998
      },
      "district": "信義區"
    },
    {
      "id": "ChIJW9rwb6GrQjQRtGsUNGR2qNw",
      "name": "金春發牛肉店",
      "rating": 4.2,
      "userRatingCount": 2740,
      "formattedAddress": "115台灣台北市南港區忠孝東路六段372號",
      "location": {
        "latitude": 25.0496914,
        "longitude": 121.59175979999999
      },
      "district": "南港區"
    },
    {
      "id": "ChIJ6_oMxCKrQjQR2NTkLQWhlgg",
      "name": "牛肉麵．雞湯 新信義店",
      "rating": 4,
      "userRatingCount": 515,
      "formattedAddress": "110台灣台北市信義區忠孝東路五段189號",
      "location": {
        "latitude": 25.0412195,
        "longitude": 121.5693415
      },
      "district": "信義區"
    },
    {
      "id": "ChIJ-SS8sn6rQjQRINbgHlnnLs8",
      "name": "源興清燉牛肉麵",
      "rating": 4,
      "userRatingCount": 161,
      "formattedAddress": "114台灣台北市內湖區新明路229號",
      "location": {
        "latitude": 25.0580814,
        "longitude": 121.58759289999999
      },
      "district": "內湖區"
    },
    {
      "id": "ChIJadNdVierQjQRoe0aiwZDMIQ",
      "name": "FB Kitchen餐廳｜台塑牛小排牛肉麵，台北內湖餐廳推薦",
      "rating": 4.9,
      "userRatingCount": 398,
      "formattedAddress": "1樓, 122之2號, 新明路內湖區台北市台灣 114",
      "location": {
        "latitude": 25.0590811,
        "longitude": 121.5885279
      },
      "district": "內湖區"
    },
    {
      "id": "ChIJV3L6N5-rQjQRKlyz1Ovozjk",
      "name": "五二牛肉麵",
      "rating": 3.6,
      "userRatingCount": 329,
      "formattedAddress": "110台灣台北市信義區松山路190號",
      "location": {
        "latitude": 25.0458863,
        "longitude": 121.57759919999998
      },
      "district": "信義區"
    },
    {
      "id": "ChIJReqjJV6rQjQRYKnp5xeNEBQ",
      "name": "後壁牛牛肉麵館",
      "rating": 4,
      "userRatingCount": 1065,
      "formattedAddress": "115台灣台北市南港區興華路83號",
      "location": {
        "latitude": 25.055537599999997,
        "longitude": 121.60602010000001
      },
      "district": "南港區"
    },
    {
      "id": "ChIJYf093burQjQRlOB7fgqnze0",
      "name": "老董牛肉麵 環球購物中心南港店",
      "rating": 3.7,
      "userRatingCount": 304,
      "formattedAddress": "115台灣台北市南港區忠孝東路七段371號B1",
      "location": {
        "latitude": 25.052974199999998,
        "longitude": 121.60715239999999
      },
      "district": "南港區"
    },
    {
      "id": "ChIJsSC8HAmpQjQR7uCNzzunDRw",
      "name": "老山東牛肉麵",
      "rating": 4,
      "userRatingCount": 4594,
      "formattedAddress": "108台灣台北市萬華區西寧南路70號B1之15室",
      "location": {
        "latitude": 25.0435797,
        "longitude": 121.5060857
      },
      "district": "萬華區"
    },
    {
      "id": "ChIJeVR5KY6pQjQREwN2iYFlJn4",
      "name": "潮麵堂 花椒牛肉麵/萬華必吃美食小吃餐廳",
      "rating": 4.7,
      "userRatingCount": 213,
      "formattedAddress": "108台灣台北市萬華區梧州街6號1樓",
      "location": {
        "latitude": 25.0381073,
        "longitude": 121.497569
      },
      "district": "萬華區"
    },
    {
      "id": "ChIJ1SHbtAmpQjQRwfQuYb31kN8",
      "name": "西門麵店",
      "rating": 4.3,
      "userRatingCount": 11949,
      "formattedAddress": "108台灣台北市萬華區內江街41號",
      "location": {
        "latitude": 25.041694,
        "longitude": 121.505581
      },
      "district": "萬華區"
    },
    {
      "id": "ChIJ5dZQGwCpQjQRLc85zu2UUX4",
      "name": "塔城街牛肉麵",
      "rating": 5,
      "userRatingCount": 1,
      "formattedAddress": "108台灣台北市中正區洛陽街",
      "location": {
        "latitude": 25.047449600000004,
        "longitude": 121.5082701
      },
      "district": "中正區"
    },
    {
      "id": "ChIJEaMTjPSpQjQRg74JDKlRIAs",
      "name": "御真牛（西門町牛肉麵）伴手禮牛肉乾",
      "rating": 4.8,
      "userRatingCount": 797,
      "formattedAddress": "108台灣台北市萬華區成都路27巷3號",
      "location": {
        "latitude": 25.042834,
        "longitude": 121.50689599999998
      },
      "district": "萬華區"
    },
    {
      "id": "ChIJYw4BKwCpQjQRfcUVXDvP62M",
      "name": "門前隱味牛肉麵 西門漢口",
      "rating": 4.7,
      "userRatingCount": 1247,
      "formattedAddress": "108台灣台北市萬華區漢口街二段20巷7號",
      "location": {
        "latitude": 25.0450444,
        "longitude": 121.50801749999998
      },
      "district": "萬華區"
    },
    {
      "id": "ChIJM2BnaQCpQjQRdqiDfKPMLVM",
      "name": "三加牛肉麵",
      "rating": 4.5,
      "userRatingCount": 180,
      "formattedAddress": "108台灣台北市萬華區西寧南路203號",
      "location": {
        "latitude": 25.041065,
        "longitude": 121.506153
      },
      "district": "萬華區"
    },
    {
      "id": "ChIJSzyDUAipQjQRPLcYN7ta84k",
      "name": "牛店精燉牛肉麵",
      "rating": 4.3,
      "userRatingCount": 3835,
      "formattedAddress": "108台灣台北市萬華區昆明街91號",
      "location": {
        "latitude": 25.0425424,
        "longitude": 121.50485049999997
      },
      "district": "萬華區"
    },
    {
      "id": "ChIJubVE0QypQjQR_SbZicsVSxA",
      "name": "劉山東小吃店",
      "rating": 4,
      "userRatingCount": 10536,
      "formattedAddress": "100台灣台北市中正區開封街一段14巷2號",
      "location": {
        "latitude": 25.0457149,
        "longitude": 121.51376020000001
      },
      "district": "中正區"
    },
    {
      "id": "ChIJc0gIXQypQjQRxvme2Jm_ABE",
      "name": "清真黃牛肉麵館",
      "rating": 4.1,
      "userRatingCount": 3966,
      "formattedAddress": "100台灣台北市中正區延平南路23號",
      "location": {
        "latitude": 25.0456123,
        "longitude": 121.51078509999999
      },
      "district": "中正區"
    },
    {
      "id": "ChIJ_34k2MipQjQRfA4-7_xZYvU",
      "name": "周廚牛肉麵 誠品南西店",
      "rating": 3.8,
      "userRatingCount": 13,
      "formattedAddress": "B1, No. 14號南京西路中山區台北市台灣 104",
      "location": {
        "latitude": 25.0520942,
        "longitude": 121.5207243
      },
      "district": "中山區"
    },
    {
      "id": "ChIJ67EhmOSpQjQRoJJ1r4F3i_E",
      "name": "老董牛肉麵 東森廣場-K區地下街",
      "rating": 3.4,
      "userRatingCount": 178,
      "formattedAddress": "103台灣台北市中正區忠孝西路一段47號",
      "location": {
        "latitude": 25.0469357,
        "longitude": 121.51543290000001
      },
      "district": "中正區"
    },
    {
      "id": "ChIJt4agn22pQjQR2ub-VSYUxXs",
      "name": "段純貞-台北京站店",
      "rating": 3.5,
      "userRatingCount": 1215,
      "formattedAddress": "103台灣台北市大同區承德路一段1號號B3",
      "location": {
        "latitude": 25.0488681,
        "longitude": 121.51877990000001
      },
      "district": "大同區"
    },
    {
      "id": "ChIJjc2cgG2pQjQRiaW7OahAZbE",
      "name": "老董牛肉麵（微風北車店）",
      "rating": 3.9,
      "userRatingCount": 174,
      "formattedAddress": "100台灣台北市中正區北平西路3號2 樓",
      "location": {
        "latitude": 25.0480779,
        "longitude": 121.51724069999999
      },
      "district": "中正區"
    },
    {
      "id": "ChIJs9HOcHypQjQRlMPKm2JfIjw",
      "name": "玖伍牛肉麵忠孝店",
      "rating": 4.2,
      "userRatingCount": 2980,
      "formattedAddress": "100台灣台北市中正區新生南路一段54巷22號",
      "location": {
        "latitude": 25.0411277,
        "longitude": 121.5316621
      },
      "district": "中正區"
    },
    {
      "id": "ChIJrbAQt12pQjQR4qwLC-rCh_8",
      "name": "史記正宗牛肉麵",
      "rating": 3.9,
      "userRatingCount": 2008,
      "formattedAddress": "10491台灣台北市中山區四平街19號",
      "location": {
        "latitude": 25.0537444,
        "longitude": 121.53113689999999
      },
      "district": "中山區"
    },
    {
      "id": "ChIJsaYRo96rQjQRRNk2uhtsEa4",
      "name": "牛家村｜台北美食50年老店本土牛肉料理專營｜",
      "rating": 3.9,
      "userRatingCount": 1047,
      "formattedAddress": "10491台灣台北市中山區遼寧街51號",
      "location": {
        "latitude": 25.0489554,
        "longitude": 121.5422615
      },
      "district": "中山區"
    },
    {
      "id": "ChIJg6gxU9mrQjQRLhYiBn7u3tQ",
      "name": "四鄉五島馬祖麵店",
      "rating": 3.9,
      "userRatingCount": 4073,
      "formattedAddress": "10491台灣台北市中山區遼寧街7號",
      "location": {
        "latitude": 25.0475352,
        "longitude": 121.54222379999999
      },
      "district": "中山區"
    },
    {
      "id": "ChIJHz98_turQjQRVSsWAemRkKs",
      "name": "阿三汕頭牛肉麵",
      "rating": 4.3,
      "userRatingCount": 594,
      "formattedAddress": "104台灣台北市中山區八德路二段312巷7號",
      "location": {
        "latitude": 25.0468672,
        "longitude": 121.542915
      },
      "district": "中山區"
    },
    {
      "id": "ChIJdbNKqt6pQjQRXAWAoy6md-c",
      "name": "麵大廚 四平店",
      "rating": 4.4,
      "userRatingCount": 1417,
      "formattedAddress": "104台灣台北市中山區南京東路二段115巷18-1號",
      "location": {
        "latitude": 25.0531963,
        "longitude": 121.5335529
      },
      "district": "中山區"
    },
    {
      "id": "ChIJZ5N19WCrQjQRkmH4HkD4oe8",
      "name": "牛易館牛肉麵（全台唯一葷素牛肉麵館）",
      "rating": 4.3,
      "userRatingCount": 609,
      "formattedAddress": "10491台灣台北市中山區八德路二段284號",
      "location": {
        "latitude": 25.046919199999998,
        "longitude": 121.54175760000001
      },
      "district": "中山區"
    },
    {
      "id": "ChIJM8wgSimrQjQRVppcriMyJ-U",
      "name": "延吉2-6牛肉麵",
      "rating": 4,
      "userRatingCount": 32,
      "formattedAddress": "105台灣台北市松山區延吉街2-6號",
      "location": {
        "latitude": 25.0477453,
        "longitude": 121.553302
      },
      "district": "松山區"
    },
    {
      "id": "ChIJcxFugsarQjQRS5yrJk7PPOY",
      "name": "伍柒玖專業牛肉麵店",
      "rating": 3.7,
      "userRatingCount": 974,
      "formattedAddress": "106台灣台北市大安區延吉街68-24號",
      "location": {
        "latitude": 25.0428416,
        "longitude": 121.55402989999997
      },
      "district": "大安區"
    },
    {
      "id": "ChIJQ94BhwCrQjQRPV_GLNgtu8c",
      "name": "便宜吃牛肉麵",
      "rating": 4.6,
      "userRatingCount": 115,
      "formattedAddress": "105台灣台北市松山區八德路三段76號2樓",
      "location": {
        "latitude": 25.0479549,
        "longitude": 121.5527089
      },
      "district": "松山區"
    },
    {
      "id": "ChIJT0NYhZ6rQjQRASPvSHE4ERo",
      "name": "就是這間-功夫牛肉麵",
      "rating": 4.8,
      "userRatingCount": 537,
      "formattedAddress": "105台灣台北市松山區八德路二段366巷29號1樓",
      "location": {
        "latitude": 25.0468666,
        "longitude": 121.54610019999998
      },
      "district": "松山區"
    },
    {
      "id": "ChIJX7JwpnmrQjQRrc5er4yhvDg",
      "name": "東引快刀手-光復店",
      "rating": 4.2,
      "userRatingCount": 2025,
      "formattedAddress": "105台灣台北市松山區光復南路54號",
      "location": {
        "latitude": 25.0458164,
        "longitude": 121.5576116
      },
      "district": "松山區"
    },
    {
      "id": "ChIJiUI2_dqrQjQR7mJoiOgM-AQ",
      "name": "小林麵食館",
      "rating": 3.1,
      "userRatingCount": 1823,
      "formattedAddress": "106台灣台北市大安區大安路一段28號",
      "location": {
        "latitude": 25.0437658,
        "longitude": 121.54606380000001
      },
      "district": "大安區"
    },
    {
      "id": "ChIJa8iqhL2rQjQRwazuvMUg4zE",
      "name": "總裁牛肉麵-遠百A13門市",
      "rating": 4.9,
      "userRatingCount": 122,
      "formattedAddress": "110台灣台北市信義區松仁路58號4 樓",
      "location": {
        "latitude": 25.036784899999997,
        "longitude": 121.56795659999999
      },
      "district": "信義區"
    },
    {
      "id": "ChIJY_8aNpWrQjQRgZPJklhEozs",
      "name": "南岭精緻麵館",
      "rating": 4.6,
      "userRatingCount": 908,
      "formattedAddress": "105台灣台北市松山區光復北路11巷62號",
      "location": {
        "latitude": 25.049908199999997,
        "longitude": 121.5603026
      },
      "district": "松山區"
    },
    {
      "id": "ChIJRwo85pmrQjQRMEa-0_MRGNw",
      "name": "台南陽春麵",
      "rating": 4,
      "userRatingCount": 238,
      "formattedAddress": "105台灣台北市松山區八德路四段509號",
      "location": {
        "latitude": 25.0499761,
        "longitude": 121.57184029999999
      },
      "district": "松山區"
    },
    {
      "id": "ChIJLTLU35OrQjQRBhrcd1uMDtg",
      "name": "牛肉麵水餃咖哩飯",
      "rating": 3.4,
      "userRatingCount": 21,
      "formattedAddress": "105台灣台北市松山區八德路四段709巷",
      "location": {
        "latitude": 25.0505183,
        "longitude": 121.5767129
      },
      "district": "松山區"
    },
    {
      "id": "ChIJzbRDti-rQjQRlh0dDnBC4L8",
      "name": "松禾屋牛肉麵",
      "rating": 4.7,
      "userRatingCount": 192,
      "formattedAddress": "105台灣台北市松山區南京東路五段291巷6弄11號",
      "location": {
        "latitude": 25.0520331,
        "longitude": 121.56561970000001
      },
      "district": "松山區"
    },
    {
      "id": "ChIJjSAM9FarQjQRP4dxuMCY2zo",
      "name": "黎記牛肉麵",
      "rating": 4.4,
      "userRatingCount": 67,
      "formattedAddress": "105台灣台北市松山區南京東路五段250巷9-2號",
      "location": {
        "latitude": 25.0499388,
        "longitude": 121.56600710000001
      },
      "district": "松山區"
    },
    {
      "id": "ChIJLTivfUWtQjQRhTLcFKOZ8nM",
      "name": "松英水餃麵店 (副總麵)",
      "rating": 4.1,
      "userRatingCount": 98,
      "formattedAddress": "114台灣台北市內湖區行善路27號",
      "location": {
        "latitude": 25.0563559,
        "longitude": 121.57580899999999
      },
      "district": "內湖區"
    },
    {
      "id": "ChIJB18U1F-rQjQRejgTIOMTF4Q",
      "name": "太官私房牛肉麵",
      "rating": 4.4,
      "userRatingCount": 808,
      "formattedAddress": "1f No. 16號, No. 16號中坡北路南港區台北市台灣 115",
      "location": {
        "latitude": 25.044811,
        "longitude": 121.58152100000001
      },
      "district": "南港區"
    },
    {
      "id": "ChIJs6op2Q6rQjQRKKXCNLBGccw",
      "name": "拾壹烏龍麵&蓋飯",
      "rating": 4.4,
      "userRatingCount": 68,
      "formattedAddress": "110台灣台北市信義區虎林街11-2號",
      "location": {
        "latitude": 25.0488707,
        "longitude": 121.57598409999999
      },
      "district": "信義區"
    },
    {
      "id": "ChIJY34qdy2rQjQRgj97sK3sxoA",
      "name": "天東86牛肉麵-永吉店",
      "rating": 4.5,
      "userRatingCount": 326,
      "formattedAddress": "11065台灣台北市信義區永吉路120巷83號",
      "location": {
        "latitude": 25.0424831,
        "longitude": 121.5703138
      },
      "district": "信義區"
    },
    {
      "id": "ChIJMVQgh5arQjQR9PFR_Ibdp4c",
      "name": "老宋牛肉麵水餃",
      "rating": 3.8,
      "userRatingCount": 203,
      "formattedAddress": "105台灣台北市松山區南京東路五段250巷2弄9號",
      "location": {
        "latitude": 25.050756399999997,
        "longitude": 121.56662750000001
      },
      "district": "松山區"
    },
    {
      "id": "ChIJ5zXOIKCrQjQRZwPyLgwqLdQ",
      "name": "珍珍牛肉麵",
      "rating": 4.3,
      "userRatingCount": 638,
      "formattedAddress": "110台灣台北市信義區忠孝東路五段743巷11號",
      "location": {
        "latitude": 25.04356,
        "longitude": 121.580913
      },
      "district": "信義區"
    },
    {
      "id": "ChIJgRFJIQCrQjQRxn6Bg1L5xPw",
      "name": "江清波牛肉麵滷味專門店(南港總店)",
      "rating": 4.5,
      "userRatingCount": 163,
      "formattedAddress": "115台灣台北市南港區忠孝東路六段420號1樓",
      "location": {
        "latitude": 25.0500243,
        "longitude": 121.5931433
      },
      "district": "南港區"
    },
    {
      "id": "ChIJMXooIHCrQjQRi3Z-SNhPMu8",
      "name": "昆陽牛肉麵",
      "rating": 4.1,
      "userRatingCount": 2031,
      "formattedAddress": "115台灣台北市南港區昆陽街140巷5號",
      "location": {
        "latitude": 25.049889,
        "longitude": 121.593947
      },
      "district": "南港區"
    },
    {
      "id": "ChIJg5_-IHCrQjQRWX8PjgI3LUU",
      "name": "昆陽街 奇味番茄牛肉麵",
      "rating": 4.2,
      "userRatingCount": 831,
      "formattedAddress": "115台灣台北市南港區昆陽街140巷12號",
      "location": {
        "latitude": 25.0496838,
        "longitude": 121.5939226
      },
      "district": "南港區"
    },
    {
      "id": "ChIJpS2wtKmrQjQRBGzM1Ll9JFU",
      "name": "豪麥牛肉麵",
      "rating": 4.7,
      "userRatingCount": 101,
      "formattedAddress": "115台灣台北市南港區成福路172號",
      "location": {
        "latitude": 25.041522699999998,
        "longitude": 121.58763839999999
      },
      "district": "南港區"
    },
    {
      "id": "ChIJLWIYWHSrQjQR0Iukn28EW-Q",
      "name": "滿客牛肉麵",
      "rating": 4,
      "userRatingCount": 524,
      "formattedAddress": "115台灣台北市南港區成福路34號",
      "location": {
        "latitude": 25.0452324,
        "longitude": 121.5862195
      },
      "district": "南港區"
    },
    {
      "id": "ChIJpQWI816rQjQRKtdvTeHmpcA",
      "name": "Neverland Noodle Bar",
      "rating": 4.4,
      "userRatingCount": 990,
      "formattedAddress": "115台灣台北市南港區南港路一段271號",
      "location": {
        "latitude": 25.054565,
        "longitude": 121.608701
      },
      "district": "南港區"
    },
    {
      "id": "ChIJQ7BDKl6rQjQROrqcm4cN_Hk",
      "name": "鼎園牛肉麵館",
      "rating": 3.5,
      "userRatingCount": 472,
      "formattedAddress": "115台灣台北市南港區興華路94號",
      "location": {
        "latitude": 25.0562561,
        "longitude": 121.60562890000001
      },
      "district": "南港區"
    },
    {
      "id": "ChIJ53TWRl6rQjQRziFF4TLzevc",
      "name": "食讚牛肉麵",
      "rating": 3.7,
      "userRatingCount": 438,
      "formattedAddress": "115台灣台北市南港區興中路12巷5號",
      "location": {
        "latitude": 25.055131,
        "longitude": 121.60712000000001
      },
      "district": "南港區"
    },
    {
      "id": "ChIJr4tHw1irQjQRo2fFvcP0rX0",
      "name": "牛巴達小吃店",
      "rating": 4.1,
      "userRatingCount": 63,
      "formattedAddress": "115台灣台北市南港區南港路一段152-6號",
      "location": {
        "latitude": 25.055620599999997,
        "longitude": 121.6123207
      },
      "district": "南港區"
    },
    {
      "id": "ChIJUaHtZwCpQjQRj3UoYvSF9LI",
      "name": "牛肉麵",
      "rating": 4.7,
      "userRatingCount": 26,
      "formattedAddress": "108台灣台北市萬華區長順街93號",
      "location": {
        "latitude": 25.0317501,
        "longitude": 121.49021610000001
      },
      "district": "萬華區"
    },
    {
      "id": "ChIJeRWBlMOpQjQRWe7SwtwyyF0",
      "name": "正杰牛肉麵",
      "rating": 4.3,
      "userRatingCount": 871,
      "formattedAddress": "108台灣台北市萬華區東園街60號",
      "location": {
        "latitude": 25.026044799999998,
        "longitude": 121.49631730000002
      },
      "district": "萬華區"
    },
    {
      "id": "ChIJKdpLqXKpQjQR8d6Dyoc8YLo",
      "name": "郭家炒牛肉",
      "rating": 4.4,
      "userRatingCount": 1107,
      "formattedAddress": "108台灣台北市萬華區華西街攤位146號",
      "location": {
        "latitude": 25.0390435,
        "longitude": 121.4983447
      },
      "district": "萬華區"
    },
    {
      "id": "ChIJcfV4og6pQjQRZxoFSIcd2cw",
      "name": "滿漢牛肉麵食堂",
      "rating": 4.2,
      "userRatingCount": 1178,
      "formattedAddress": "1樓, No. 22號武昌街二段50巷萬華區台北市台灣 108",
      "location": {
        "latitude": 25.0438789,
        "longitude": 121.5067239
      },
      "district": "萬華區"
    },
    {
      "id": "ChIJl4s2YLKpQjQR4FW8hBXPx2g",
      "name": "福讚牛家美食館（雙園店）",
      "rating": 3.6,
      "userRatingCount": 307,
      "formattedAddress": "108台灣台北市萬華區雙園街120號之1",
      "location": {
        "latitude": 25.0311471,
        "longitude": 121.49246819999999
      },
      "district": "萬華區"
    },
    {
      "id": "ChIJU5UNjgipQjQRZDaCOD8I7XE",
      "name": "犢立牛肉麵 (西門町Ximending）DU LI BEFF NOODLE",
      "rating": 4.5,
      "userRatingCount": 757,
      "formattedAddress": "108台灣台北市萬華區貴陽街二段31號",
      "location": {
        "latitude": 25.039627799999998,
        "longitude": 121.5053126
      },
      "district": "萬華區"
    },
    {
      "id": "ChIJs9BUuwypQjQRJzVaAli3zM4",
      "name": "阿桂的店",
      "rating": 3.9,
      "userRatingCount": 1193,
      "formattedAddress": "100台灣台北市中正區重慶南路一段50號",
      "location": {
        "latitude": 25.0444,
        "longitude": 121.51311199999999
      },
      "district": "中正區"
    },
    {
      "id": "ChIJ6xj3C3GpQjQRaSOEnbUzB94",
      "name": "93蕃茄牛肉麵",
      "rating": 4.2,
      "userRatingCount": 1887,
      "formattedAddress": "100台灣台北市中正區青島東路3-2號",
      "location": {
        "latitude": 25.0440762,
        "longitude": 121.521578
      },
      "district": "中正區"
    },
    {
      "id": "ChIJG-pNpyqpQjQRA699QdDeOPE",
      "name": "睿蓁牛肉麵",
      "rating": 4,
      "userRatingCount": 139,
      "formattedAddress": "100台灣台北市中正區南陽街15號之4",
      "location": {
        "latitude": 25.044490699999997,
        "longitude": 121.5161518
      },
      "district": "中正區"
    },
    {
      "id": "ChIJmwLREXypQjQRzR_a1t8dy6c",
      "name": "濟南牛肉麵",
      "rating": 4.4,
      "userRatingCount": 2498,
      "formattedAddress": "100台灣台北市中正區濟南路二段60之3號",
      "location": {
        "latitude": 25.0401419,
        "longitude": 121.53208789999998
      },
      "district": "中正區"
    },
    {
      "id": "ChIJr9eTFHypQjQRw_rOiZtNOAs",
      "name": "七十二牛肉麵",
      "rating": 4.1,
      "userRatingCount": 2660,
      "formattedAddress": "100台灣台北市中正區濟南路二段71號",
      "location": {
        "latitude": 25.0402953,
        "longitude": 121.5324411
      },
      "district": "中正區"
    },
    {
      "id": "ChIJxwsX1p6pQjQRVbhVr3SBB88",
      "name": "大崔牛肉麵",
      "rating": 4.7,
      "userRatingCount": 22,
      "formattedAddress": "100台灣台北市中正區新生南路一段132巷",
      "location": {
        "latitude": 25.036807,
        "longitude": 121.53234219999999
      },
      "district": "中正區"
    },
    {
      "id": "ChIJb5yV33mpQjQRN7dUoPH_k_A",
      "name": "大塊牛肉麵",
      "rating": 4.1,
      "userRatingCount": 1005,
      "formattedAddress": "100台灣台北市中正區杭州南路一段79號",
      "location": {
        "latitude": 25.039187899999998,
        "longitude": 121.52560949999997
      },
      "district": "中正區"
    },
    {
      "id": "ChIJq0T3oHypQjQRyaW2caD6c4Y",
      "name": "銀記手擀刀切牛肉麵",
      "rating": 4.1,
      "userRatingCount": 3202,
      "formattedAddress": "100台灣台北市中正區八德路一段82巷9弄17號",
      "location": {
        "latitude": 25.0436002,
        "longitude": 121.5313792
      },
      "district": "中正區"
    },
    {
      "id": "ChIJCYWyCqipQjQReoJwhDl4d-g",
      "name": "小美好牛肉麵",
      "rating": 4.5,
      "userRatingCount": 605,
      "formattedAddress": "100台灣台北市中正區杭州南路一段143巷39號",
      "location": {
        "latitude": 25.035618499999998,
        "longitude": 121.52720049999998
      },
      "district": "中正區"
    },
    {
      "id": "ChIJJx8z59OrQjQRKBWqFf6dG8I",
      "name": "玖五牛肉麵",
      "rating": 3.8,
      "userRatingCount": 1378,
      "formattedAddress": "106台灣台北市大安區東豐街5號",
      "location": {
        "latitude": 25.036135299999998,
        "longitude": 121.54400270000001
      },
      "district": "大安區"
    },
    {
      "id": "ChIJcRSHRACrQjQRr1OtxkGc8kI",
      "name": "地一牛肉麵",
      "rating": 4.8,
      "userRatingCount": 450,
      "formattedAddress": "106台灣台北市大安區延吉街162號",
      "location": {
        "latitude": 25.0392007,
        "longitude": 121.5549147
      },
      "district": "大安區"
    },
    {
      "id": "ChIJceSuri2rQjQRRoE7bNp7GhQ",
      "name": "牛殿下秘傳金湯牛肉麵 大安店",
      "rating": 4.7,
      "userRatingCount": 48,
      "formattedAddress": "10690台灣台北市大安區忠孝東路四段97號地下之20",
      "location": {
        "latitude": 25.0417877,
        "longitude": 121.5478902
      },
      "district": "大安區"
    },
    {
      "id": "ChIJaT1LSQyrQjQRuwSWPuHkyvw",
      "name": "政武牛肉麵 ZhengWu Beef Noodles",
      "rating": 4.7,
      "userRatingCount": 876,
      "formattedAddress": "106台灣台北市大安區大安路一段75巷21號",
      "location": {
        "latitude": 25.0422413,
        "longitude": 121.54737069999999
      },
      "district": "大安區"
    },
    {
      "id": "ChIJOxQFz4OrQjQRg1-YB3wJLqE",
      "name": "相遇牛肉麵「Taiwan Beef Noodles」",
      "rating": 5,
      "userRatingCount": 61,
      "formattedAddress": "106台灣台北市大安區四維路6巷22號",
      "location": {
        "latitude": 25.0370918,
        "longitude": 121.54758249999999
      },
      "district": "大安區"
    },
    {
      "id": "ChIJKb_UDtSrQjQR6k2Atznt8Hc",
      "name": "成都老么牛肉麵",
      "rating": 4.5,
      "userRatingCount": 430,
      "formattedAddress": "106台灣台北市大安區復興南路一段340巷38號",
      "location": {
        "latitude": 25.0359889,
        "longitude": 121.5423064
      },
      "district": "大安區"
    },
    {
      "id": "ChIJL6Gl-parQjQRiTm9VwoFN40",
      "name": "老唐牛肉麵 台北東區店",
      "rating": 4.2,
      "userRatingCount": 160,
      "formattedAddress": "106台灣台北市大安區敦化南路一段187巷37號B1-1",
      "location": {
        "latitude": 25.042628,
        "longitude": 121.55143790000001
      },
      "district": "大安區"
    },
    {
      "id": "ChIJu2VGMACrQjQRZ5EQUGiJQdo",
      "name": "森記牛肉麵",
      "rating": 3.7,
      "userRatingCount": 144,
      "formattedAddress": "106台灣台北市大安區延吉街134號",
      "location": {
        "latitude": 25.0399693,
        "longitude": 121.55476150000001
      },
      "district": "大安區"
    },
    {
      "id": "ChIJz-ZCsserQjQRSNJno7pHgqo",
      "name": "江家牛肉麵永和豆漿(光復店)",
      "rating": 3.8,
      "userRatingCount": 2758,
      "formattedAddress": "106台灣台北市大安區光復南路240巷1號",
      "location": {
        "latitude": 25.0404035,
        "longitude": 121.55742660000001
      },
      "district": "大安區"
    },
    {
      "id": "ChIJ13TOiMarQjQRGCtxcxV5rUo",
      "name": "清真中國牛肉麵食館 (大安)",
      "rating": 4.2,
      "userRatingCount": 3415,
      "formattedAddress": "106台灣台北市大安區延吉街137巷7弄1號",
      "location": {
        "latitude": 25.0420706,
        "longitude": 121.55495659999998
      },
      "district": "大安區"
    },
    {
      "id": "ChIJMfd9B8OrQjQR9ltUU3YU8zU",
      "name": "老爹牛肉麵",
      "rating": 4.2,
      "userRatingCount": 282,
      "formattedAddress": "105台灣台北市松山區八德路三段12巷5弄22號",
      "location": {
        "latitude": 25.0475866,
        "longitude": 121.5513261
      },
      "district": "松山區"
    },
    {
      "id": "ChIJcZ4GBcarQjQRiPL6EljLzKU",
      "name": "陳記外省麵",
      "rating": 3.9,
      "userRatingCount": 947,
      "formattedAddress": "106台灣台北市大安區延吉街138巷1號1 樓",
      "location": {
        "latitude": 25.039695500000004,
        "longitude": 121.55469499999998
      },
      "district": "大安區"
    },
    {
      "id": "ChIJR3BtK8SrQjQR7gIRgbIgWOk",
      "name": "不一樣乾麵",
      "rating": 4.1,
      "userRatingCount": 923,
      "formattedAddress": "106台灣台北市大安區延吉街70巷5弄10號",
      "location": {
        "latitude": 25.042232,
        "longitude": 121.553913
      },
      "district": "大安區"
    },
    {
      "id": "ChIJPS8X5MyrQjQRIVvf9enAYcs",
      "name": "總裁牛肉麵 台北信義店",
      "rating": 3.9,
      "userRatingCount": 1003,
      "formattedAddress": "110台灣台北市信義區松仁路28號B2",
      "location": {
        "latitude": 25.0393689,
        "longitude": 121.56785850000001
      },
      "district": "信義區"
    },
    {
      "id": "ChIJ5esyJACrQjQRA32xwFtOXy8",
      "name": "饗 叮噹牛肉麵",
      "rating": 4.7,
      "userRatingCount": 83,
      "formattedAddress": "106台灣台北市大安區通化街171巷14號",
      "location": {
        "latitude": 25.027860699999998,
        "longitude": 121.55425240000001
      },
      "district": "大安區"
    },
    {
      "id": "ChIJxR1TcbyrQjQRmKVujikF2xo",
      "name": "上海市牛肉麵",
      "rating": 3.5,
      "userRatingCount": 548,
      "formattedAddress": "110台灣台北市信義區忠孝東路五段71巷7號",
      "location": {
        "latitude": 25.0417122,
        "longitude": 121.56738980000002
      },
      "district": "信義區"
    },
    {
      "id": "ChIJj9UJtrurQjQRmDr-DBY0bis",
      "name": "御牛殿麵食鍋物(新光三越A4店B2)-台灣牛肉-鈜景 御牧牛 |台灣黃牛|滴牛肉精|CAS產銷履歷雙驗證台灣牛肉品專賣店|楊鎵燡牧場|牛肉湯|刺身 牛肉麵",
      "rating": 4.2,
      "userRatingCount": 299,
      "formattedAddress": "110台灣台北市信義區松高路19號B2",
      "location": {
        "latitude": 25.0396539,
        "longitude": 121.5667447
      },
      "district": "信義區"
    },
    {
      "id": "ChIJM3iTicCrQjQROJWoFGfYz08",
      "name": "老王原汁牛肉麵",
      "rating": 4.2,
      "userRatingCount": 676,
      "formattedAddress": "110台灣台北市信義區松山路462號",
      "location": {
        "latitude": 25.040457999999997,
        "longitude": 121.57764299999998
      },
      "district": "信義區"
    },
    {
      "id": "ChIJv71tLKSrQjQRpejKG3Q1u0Q",
      "name": "牛味",
      "rating": 4.5,
      "userRatingCount": 758,
      "formattedAddress": "110台灣台北市信義區虎林街131號",
      "location": {
        "latitude": 25.039953,
        "longitude": 121.57686899999997
      },
      "district": "信義區"
    },
    {
      "id": "ChIJ9TihNwqrQjQRocz7xATT61A",
      "name": "楊家牛肉麵水餃",
      "rating": 4.4,
      "userRatingCount": 125,
      "formattedAddress": "110台灣台北市信義區福德街236之1號",
      "location": {
        "latitude": 25.0387254,
        "longitude": 121.58477810000001
      },
      "district": "信義區"
    },
    {
      "id": "ChIJzyqO_qOrQjQR2lwRY8GcyUc",
      "name": "小陳牛肉麵",
      "rating": 4.2,
      "userRatingCount": 2143,
      "formattedAddress": "110台灣台北市信義區虎林街135號",
      "location": {
        "latitude": 25.039869000000003,
        "longitude": 121.576847
      },
      "district": "信義區"
    },
    {
      "id": "ChIJpYa65qCrQjQRZY_V83Gifns",
      "name": "大家好牛肉麵",
      "rating": 4.3,
      "userRatingCount": 297,
      "formattedAddress": "110台灣台北市信義區林口街105號",
      "location": {
        "latitude": 25.0401351,
        "longitude": 121.58015830000001
      },
      "district": "信義區"
    },
    {
      "id": "ChIJKQsQfbSpQjQR2XNo7AMlm2w",
      "name": "牛哥沙茶牛肉",
      "rating": 4,
      "userRatingCount": 248,
      "formattedAddress": "108台灣台北市萬華區寶興街75號",
      "location": {
        "latitude": 25.0263323,
        "longitude": 121.49430690000001
      },
      "district": "萬華區"
    },
    {
      "id": "ChIJA3XoAYypQjQRjE6j8YZFmUs",
      "name": "味 牛肉麵專賣",
      "rating": 4.5,
      "userRatingCount": 338,
      "formattedAddress": "108台灣台北市萬華區西園路二段308號",
      "location": {
        "latitude": 25.0263134,
        "longitude": 121.49270639999997
      },
      "district": "萬華區"
    },
    {
      "id": "ChIJNQVzGXapQjQRRpuxPcjPoAA",
      "name": "牛の廊牛肉麵",
      "rating": 4.7,
      "userRatingCount": 117,
      "formattedAddress": "108台灣台北市萬華區東園街6號",
      "location": {
        "latitude": 25.027801399999998,
        "longitude": 121.49550430000001
      },
      "district": "萬華區"
    },
    {
      "id": "ChIJcZCvRdmpQjQRMU-h6qs0OSs",
      "name": "朱海牛肉麵",
      "rating": 4.6,
      "userRatingCount": 14,
      "formattedAddress": "108213台灣台北市萬華區大理街175巷21號1樓",
      "location": {
        "latitude": 25.0344682,
        "longitude": 121.49500320000001
      },
      "district": "萬華區"
    },
    {
      "id": "ChIJowOLObCpQjQRnefdWY6E6bg",
      "name": "味妙冰品/牛肉麵 （우육면）",
      "rating": 4.4,
      "userRatingCount": 257,
      "formattedAddress": "108台灣台北市萬華區萬大路113號",
      "location": {
        "latitude": 25.0297371,
        "longitude": 121.50070160000001
      },
      "district": "萬華區"
    },
    {
      "id": "ChIJb9BGTACpQjQRTO2FpQEDJk8",
      "name": "蔡家原汁牛肉麵",
      "rating": 3.8,
      "userRatingCount": 98,
      "formattedAddress": "100台灣台北市中正區中華路二段337號1樓",
      "location": {
        "latitude": 25.0273145,
        "longitude": 121.5067652
      },
      "district": "中正區"
    },
    {
      "id": "ChIJA--fPrupQjQRtGo5XOJpmoU",
      "name": "山東三合一牛肉麵",
      "rating": 4,
      "userRatingCount": 357,
      "formattedAddress": "100台灣台北市中正區惠安街41之1號",
      "location": {
        "latitude": 25.0288266,
        "longitude": 121.5074366
      },
      "district": "中正區"
    },
    {
      "id": "ChIJg3ZpGZupQjQRITYxIfVA-GI",
      "name": "林記牛肉麵",
      "rating": 4.3,
      "userRatingCount": 1801,
      "formattedAddress": "106台灣台北市大安區潮州街60巷5弄1號",
      "location": {
        "latitude": 25.0283855,
        "longitude": 121.5238138
      },
      "district": "大安區"
    },
    {
      "id": "ChIJ6Yzoy5ipQjQRUUVVRbNf8_c",
      "name": "老熊牛肉麵店",
      "rating": 4.3,
      "userRatingCount": 1140,
      "formattedAddress": "100台灣台北市中正區南海路38-2號",
      "location": {
        "latitude": 25.0321391,
        "longitude": 121.5158005
      },
      "district": "中正區"
    },
    {
      "id": "ChIJmfkSC4-pQjQR46Ugye5gnOQ",
      "name": "牛老大麵館",
      "rating": 3.7,
      "userRatingCount": 730,
      "formattedAddress": "106台灣台北市大安區龍泉街19-2號",
      "location": {
        "latitude": 25.024801399999998,
        "longitude": 121.52940140000001
      },
      "district": "大安區"
    },
    {
      "id": "ChIJLzN12tmpQjQR-WUw4otosHc",
      "name": "來了就吃",
      "rating": 4.7,
      "userRatingCount": 911,
      "formattedAddress": "106台灣台北市大安區金山南路二段85巷7-1號",
      "location": {
        "latitude": 25.0313108,
        "longitude": 121.5273124
      },
      "district": "大安區"
    },
    {
      "id": "ChIJp3J9f5ypQjQR9_Iae8u7iBo",
      "name": "老張牛肉麵店",
      "rating": 3.8,
      "userRatingCount": 1449,
      "formattedAddress": "100台灣台北市中正區杭州南路二段48號",
      "location": {
        "latitude": 25.0308426,
        "longitude": 121.52214679999999
      },
      "district": "中正區"
    },
    {
      "id": "ChIJ_c-S6ZCpQjQR8BqlbR-GH6o",
      "name": "郭記牛肉麵",
      "rating": 4.2,
      "userRatingCount": 1597,
      "formattedAddress": "100台灣台北市中正區汀州路二段152號",
      "location": {
        "latitude": 25.024172999999998,
        "longitude": 121.5213816
      },
      "district": "中正區"
    },
    {
      "id": "ChIJ99KeQJupQjQRQA6rr2fzqvo",
      "name": "老王紅燒牛肉麵",
      "rating": 4.2,
      "userRatingCount": 1705,
      "formattedAddress": "106台灣台北市大安區潮州街82號",
      "location": {
        "latitude": 25.029080000000004,
        "longitude": 121.5244318
      },
      "district": "大安區"
    },
    {
      "id": "ChIJ_dnQooWpQjQRntq2ZIB2q0Y",
      "name": "寶島牛牛肉麵",
      "rating": 3.2,
      "userRatingCount": 202,
      "formattedAddress": "106台灣台北市大安區龍泉街32號",
      "location": {
        "latitude": 25.024488500000004,
        "longitude": 121.52933259999999
      },
      "district": "大安區"
    },
    {
      "id": "ChIJgRdW94KpQjQRODiapkz_DB0",
      "name": "永康牛肉麵",
      "rating": 3.7,
      "userRatingCount": 11017,
      "formattedAddress": "106台灣台北市大安區金山南路二段31巷17號",
      "location": {
        "latitude": 25.0329382,
        "longitude": 121.52811109999998
      },
      "district": "大安區"
    },
    {
      "id": "ChIJ6WW-s4OpQjQRUXIpXj-TAnQ",
      "name": "台灣一品 拉麵與刀削麵",
      "rating": 3.3,
      "userRatingCount": 1797,
      "formattedAddress": "106台灣台北市大安區永康街4巷8號",
      "location": {
        "latitude": 25.0328992,
        "longitude": 121.5295707
      },
      "district": "大安區"
    },
    {
      "id": "ChIJH8CWqIOpQjQRtYRsiGYjETo",
      "name": "川味老張牛肉麵店",
      "rating": 3.9,
      "userRatingCount": 2600,
      "formattedAddress": "106台灣台北市大安區愛國東路105號",
      "location": {
        "latitude": 25.0315092,
        "longitude": 121.52873149999998
      },
      "district": "大安區"
    },
    {
      "id": "ChIJJz0ag4KpQjQR_SjMdg2b2Qs",
      "name": "御牛殿麵食鍋物(東門店)",
      "rating": 4.3,
      "userRatingCount": 690,
      "formattedAddress": "100台灣台北市中正區臨沂街70號",
      "location": {
        "latitude": 25.034584000000002,
        "longitude": 121.527824
      },
      "district": "中正區"
    },
    {
      "id": "ChIJgbwEgJypQjQR6zkPQ6rpaNI",
      "name": "廖家牛肉麵",
      "rating": 4.1,
      "userRatingCount": 2748,
      "formattedAddress": "106台灣台北市大安區金華街98號",
      "location": {
        "latitude": 25.030234999999998,
        "longitude": 121.52546500000001
      },
      "district": "大安區"
    },
    {
      "id": "ChIJS67Q4E6rQjQRnRLhmhlrRiY",
      "name": "牛莊園牛肉麵",
      "rating": 4.5,
      "userRatingCount": 1452,
      "formattedAddress": "106台灣台北市大安區四維路170巷27號",
      "location": {
        "latitude": 25.0283199,
        "longitude": 121.54684780000001
      },
      "district": "大安區"
    },
    {
      "id": "ChIJnQyDXIerQjQRmDe7elb2vqU",
      "name": "上穎牛肉麵 台大創始店",
      "rating": 4.7,
      "userRatingCount": 289,
      "formattedAddress": "106027台灣台北市大安區和平東路二段118巷54弄35號一樓",
      "location": {
        "latitude": 25.0221299,
        "longitude": 121.5413508
      },
      "district": "大安區"
    },
    {
      "id": "ChIJUf5iYQCrQjQRElPg3APC1Mk",
      "name": "你好原汁牛肉麵",
      "rating": 4.6,
      "userRatingCount": 102,
      "formattedAddress": "106台灣台北市大安區四維路170巷43號",
      "location": {
        "latitude": 25.028349199999997,
        "longitude": 121.5463783
      },
      "district": "大安區"
    },
    {
      "id": "ChIJI04IqzOrQjQRsqCdeciAnQA",
      "name": "巷子李麵",
      "rating": 4.8,
      "userRatingCount": 187,
      "formattedAddress": "106台灣台北市大安區復興南路二段210巷17號",
      "location": {
        "latitude": 25.0266207,
        "longitude": 121.5422101
      },
      "district": "大安區"
    },
    {
      "id": "ChIJhVsLNACrQjQRRuOXm1vcOqs",
      "name": "胖姐牛肉麵",
      "rating": 4.8,
      "userRatingCount": 75,
      "formattedAddress": "106台灣台北市大安區敦化南路二段120號2 樓",
      "location": {
        "latitude": 25.026471299999997,
        "longitude": 121.54844589999999
      },
      "district": "大安區"
    },
    {
      "id": "ChIJax3jBzCrQjQRd-aOdrCobhs",
      "name": "18冠軍牛肉麵",
      "rating": 4.3,
      "userRatingCount": 1964,
      "formattedAddress": "106台灣台北市大安區通化街171巷24號",
      "location": {
        "latitude": 25.027743299999997,
        "longitude": 121.5546686
      },
      "district": "大安區"
    },
    {
      "id": "ChIJ7ywzDWmrQjQRKInSZ5hF57Y",
      "name": "牛翻天牛肉麵-牛大骨熬牛肉湯-湯頭濃郁 (大安店)",
      "rating": 4.2,
      "userRatingCount": 324,
      "formattedAddress": "106台灣台北市大安區信義路四段355號",
      "location": {
        "latitude": 25.0332986,
        "longitude": 121.5571985
      },
      "district": "大安區"
    },
    {
      "id": "ChIJz5YKzDCqQjQR_4KXeLpvQz8",
      "name": "老宋記真善美牛肉麵",
      "rating": 4.3,
      "userRatingCount": 4065,
      "formattedAddress": "106台灣台北市大安區安居街47號",
      "location": {
        "latitude": 25.0199052,
        "longitude": 121.55385340000001
      },
      "district": "大安區"
    },
    {
      "id": "ChIJAWZ_6i2qQjQRqsm-OfE9RcI",
      "name": "蔣記家薌麵",
      "rating": 4.3,
      "userRatingCount": 1852,
      "formattedAddress": "106台灣台北市大安區四維路208巷18之1號",
      "location": {
        "latitude": 25.0263016,
        "longitude": 121.5470213
      },
      "district": "大安區"
    },
    {
      "id": "ChIJp09L7pWrQjQRzjJD3HEXh5k",
      "name": "大方牛肋麵 世貿美食/四四南村美食/信義區必吃牛肉麵、手工水餃",
      "rating": 4.4,
      "userRatingCount": 717,
      "formattedAddress": "110台灣台北市信義區吳興街60號",
      "location": {
        "latitude": 25.0308186,
        "longitude": 121.56035670000001
      },
      "district": "信義區"
    },
    {
      "id": "ChIJpQxaxLSrQjQRIM0asRN_osM",
      "name": "伍柒玖牛肉麵飯館",
      "rating": 3.8,
      "userRatingCount": 804,
      "formattedAddress": "110台灣台北市信義區吳興街245號",
      "location": {
        "latitude": 25.0273579,
        "longitude": 121.56355709999998
      },
      "district": "信義區"
    },
    {
      "id": "ChIJyyPBxLSrQjQRxOYJuEShsKg",
      "name": "穆記牛肉麵",
      "rating": 4,
      "userRatingCount": 3414,
      "formattedAddress": "110台灣台北市信義區吳興街239號",
      "location": {
        "latitude": 25.0274987,
        "longitude": 121.56347199999999
      },
      "district": "信義區"
    },
    {
      "id": "ChIJ-Q2VBLWrQjQRl6fTa-8or_M",
      "name": "建忠牛肉麵",
      "rating": 4.1,
      "userRatingCount": 1529,
      "formattedAddress": "110台灣台北市信義區莊敬路423巷8弄2號",
      "location": {
        "latitude": 25.0284535,
        "longitude": 121.56708769999999
      },
      "district": "信義區"
    },
    {
      "id": "ChIJy1-Vs7SrQjQRJG97xiZZn2A",
      "name": "林家牛肉麵",
      "rating": 4,
      "userRatingCount": 1897,
      "formattedAddress": "110台灣台北市信義區吳興街281巷9號",
      "location": {
        "latitude": 25.0265404,
        "longitude": 121.56455729999999
      },
      "district": "信義區"
    },
    {
      "id": "ChIJ2XpA67CrQjQRFu-iyWcw0z0",
      "name": "段純貞-信義威秀店",
      "rating": 4,
      "userRatingCount": 2323,
      "formattedAddress": "110台灣台北市信義區松壽路20號",
      "location": {
        "latitude": 25.0350303,
        "longitude": 121.56726069999999
      },
      "district": "信義區"
    },
    {
      "id": "ChIJReo4NbqrQjQRkW3IaEAs4Jw",
      "name": "清真中國牛肉麵食館",
      "rating": 4,
      "userRatingCount": 848,
      "formattedAddress": "110台灣台北市信義區松高路12號新光三越B2",
      "location": {
        "latitude": 25.0377275,
        "longitude": 121.56695719999999
      },
      "district": "信義區"
    },
    {
      "id": "ChIJgS_0zKarQjQRJBOlfWEtzf8",
      "name": "川味老兵牛肉麵（台北市信義區平價午晚餐推薦／信義區必吃好吃牛肉麵推薦／台北刀削麵推薦／信義區中式餐廳料理推薦）",
      "rating": 4.1,
      "userRatingCount": 202,
      "formattedAddress": "110台灣台北市信義區松山路515巷11號第二間",
      "location": {
        "latitude": 25.0387099,
        "longitude": 121.57885
      },
      "district": "信義區"
    },
    {
      "id": "ChIJe9RhHZ2rQjQRZo4mq3usjvY",
      "name": "滿億牛肉麵",
      "rating": 4.2,
      "userRatingCount": 124,
      "formattedAddress": "110台灣台北市信義區虎林街121巷4號1樓",
      "location": {
        "latitude": 25.0402307,
        "longitude": 121.577125
      },
      "district": "信義區"
    },
    {
      "id": "ChIJJ8h-2IGpQjQRCTevaWeYrnE",
      "name": "裕昌牛肉麵",
      "rating": 4.3,
      "userRatingCount": 77,
      "formattedAddress": "108台灣台北市萬華區青年路152巷23號",
      "location": {
        "latitude": 25.0205584,
        "longitude": 121.50176689999999
      },
      "district": "萬華區"
    },
    {
      "id": "ChIJ64ui11ipQjQRxayNDRpU_6Q",
      "name": "羅牛肉麵",
      "rating": 4.9,
      "userRatingCount": 79,
      "formattedAddress": "100063台灣台北市中正區汀州路一段157號",
      "location": {
        "latitude": 25.0274441,
        "longitude": 121.51039270000001
      },
      "district": "中正區"
    },
    {
      "id": "ChIJfa1KeLypQjQRm57vCQQa698",
      "name": "宏國牛肉麵",
      "rating": 4.4,
      "userRatingCount": 362,
      "formattedAddress": "100台灣台北市中正區中華路二段417-1號",
      "location": {
        "latitude": 25.025590299999998,
        "longitude": 121.50861669999998
      },
      "district": "中正區"
    },
    {
      "id": "ChIJB0myYwCpQjQRzliErQ-rnek",
      "name": "雙和味牛肉麵",
      "rating": 1,
      "userRatingCount": 1,
      "formattedAddress": "108台灣台北市萬華區雙和街7-1號",
      "location": {
        "latitude": 25.027885599999998,
        "longitude": 121.50239189999999
      },
      "district": "萬華區"
    },
    {
      "id": "ChIJFbt7HQCpQjQRE6MGWC5zcFo",
      "name": "牛香園牛肉麵專賣店",
      "rating": 4.3,
      "userRatingCount": 3,
      "formattedAddress": "100台灣台北市中正區羅斯福路四段52巷16弄1號",
      "location": {
        "latitude": 25.0146589,
        "longitude": 121.53352910000001
      },
      "district": "中正區"
    },
    {
      "id": "ChIJ2ebt7NapQjQRt713xaM7lSo",
      "name": "崮山牛肉麵",
      "rating": 4.8,
      "userRatingCount": 131,
      "formattedAddress": "100台灣台北市中正區汀州路二段217號",
      "location": {
        "latitude": 25.0235225,
        "longitude": 121.52272839999999
      },
      "district": "中正區"
    },
    {
      "id": "ChIJx9_4kpCpQjQR8xyKayQttC4",
      "name": "同安街周記炒牛肉",
      "rating": 4,
      "userRatingCount": 297,
      "formattedAddress": "100台灣台北市中正區同安街28巷2號",
      "location": {
        "latitude": 25.0246125,
        "longitude": 121.5218776
      },
      "district": "中正區"
    },
    {
      "id": "ChIJb287n4upQjQR40e-bdThZAI",
      "name": "劉記川味牛肉麵",
      "rating": 4.1,
      "userRatingCount": 726,
      "formattedAddress": "100台灣台北市中正區羅斯福路三段316巷8弄6號",
      "location": {
        "latitude": 25.0154945,
        "longitude": 121.53253149999999
      },
      "district": "中正區"
    },
    {
      "id": "ChIJcbrl5fepQjQR_Fvux8BAVY4",
      "name": "大師原汁牛肉麵",
      "rating": 3.6,
      "userRatingCount": 59,
      "formattedAddress": "106台灣台北市大安區師大路108-1號",
      "location": {
        "latitude": 25.022055599999998,
        "longitude": 121.5281519
      },
      "district": "大安區"
    },
    {
      "id": "ChIJkaYjc26pQjQRpyhCEtaB9EQ",
      "name": "熊大牛肉麵",
      "rating": 4.7,
      "userRatingCount": 163,
      "formattedAddress": "106台灣台北市大安區羅斯福路三段283巷8號",
      "location": {
        "latitude": 25.0182149,
        "longitude": 121.5316495
      },
      "district": "大安區"
    },
    {
      "id": "ChIJ2T7KxyuqQjQRLytZgS9RYeU",
      "name": "小公園牛肉麵",
      "rating": 4.3,
      "userRatingCount": 753,
      "formattedAddress": "106台灣台北市大安區泰順街35號",
      "location": {
        "latitude": 25.0237405,
        "longitude": 121.53140359999999
      },
      "district": "大安區"
    },
    {
      "id": "ChIJPz8p9IipQjQRBtcK0dr2rrs",
      "name": "廣東汕頭至香園 ZHI XIANG YUAN - Shantou cuisine / 65年沙茶牛肉麵老店 Beef Noodle Restaurant",
      "rating": 4,
      "userRatingCount": 523,
      "formattedAddress": "106台灣台北市大安區新生南路三段86巷15號",
      "location": {
        "latitude": 25.0187057,
        "longitude": 121.53232000000001
      },
      "district": "大安區"
    },
    {
      "id": "ChIJWbdqOJCpQjQRByOUGNr89MQ",
      "name": "翁師傅私房牛肉麵",
      "rating": 4.2,
      "userRatingCount": 407,
      "formattedAddress": "100台灣台北市中正區晉江街109號",
      "location": {
        "latitude": 25.0233264,
        "longitude": 121.5242634
      },
      "district": "中正區"
    },
    {
      "id": "ChIJaZEg-oipQjQRPh7cOyV-wzA",
      "name": "大聲公 台大牛肉麵店",
      "rating": 4,
      "userRatingCount": 782,
      "formattedAddress": "106台灣台北市大安區新生南路三段54之6號",
      "location": {
        "latitude": 25.020667099999997,
        "longitude": 121.5338691
      },
      "district": "大安區"
    },
    {
      "id": "ChIJKXYstSiqQjQRDS0Nw7sCrb8",
      "name": "蔥燉牛肉麵",
      "rating": 4.2,
      "userRatingCount": 261,
      "formattedAddress": "106台灣台北市大安區和平東路二段118巷54弄1號",
      "location": {
        "latitude": 25.0221175,
        "longitude": 121.54274819999999
      },
      "district": "大安區"
    },
    {
      "id": "ChIJ0aF0Ay6qQjQR9-EY-ez2Sh4",
      "name": "13香牛肉麵",
      "rating": 4.2,
      "userRatingCount": 632,
      "formattedAddress": "106台灣台北市大安區和平東路三段48之6號",
      "location": {
        "latitude": 25.024425400000002,
        "longitude": 121.54805429999998
      },
      "district": "大安區"
    },
    {
      "id": "ChIJ2Zr8EaSrQjQRzHTzwK74Gso",
      "name": "許家黃金牛肉麵",
      "rating": 4.2,
      "userRatingCount": 783,
      "formattedAddress": "106台灣台北市大安區樂業街129號",
      "location": {
        "latitude": 25.02019,
        "longitude": 121.55305609999999
      },
      "district": "大安區"
    },
    {
      "id": "ChIJcfQNSmirQjQRU8Wnc6scZ1M",
      "name": "三條蘭州牛肉拉麵 Three Spirit Noodles House",
      "rating": 4.7,
      "userRatingCount": 448,
      "formattedAddress": "10669台灣台北市大安區樂業街43號",
      "location": {
        "latitude": 25.022754199999998,
        "longitude": 121.549956
      },
      "district": "大安區"
    },
    {
      "id": "ChIJkyJfpk2qQjQRUY6LTCnY9xM",
      "name": "川東牛肉麵",
      "rating": 3.9,
      "userRatingCount": 484,
      "formattedAddress": "110台灣台北市信義區吳興街585號",
      "location": {
        "latitude": 25.02227,
        "longitude": 121.56930399999999
      },
      "district": "信義區"
    },
    {
      "id": "ChIJw6P35zSqQjQR3iNNnm9U7hQ",
      "name": "家饌牛肉麵",
      "rating": 4.1,
      "userRatingCount": 164,
      "formattedAddress": "110台灣台北市信義區嘉興街216巷11號",
      "location": {
        "latitude": 25.0269276,
        "longitude": 121.55626280000001
      },
      "district": "信義區"
    },
    {
      "id": "ChIJjdZJGUuqQjQRrAUWAX4rRqA",
      "name": "董師傅炒飯牛肉麵",
      "rating": 4.1,
      "userRatingCount": 142,
      "formattedAddress": "110台灣台北市信義區吳興街284巷20弄27號",
      "location": {
        "latitude": 25.025078999999998,
        "longitude": 121.56309909999999
      },
      "district": "信義區"
    },
    {
      "id": "ChIJJYQszNerQjQRLZKv2sgfJPc",
      "name": "老邱牛肉麵",
      "rating": 4,
      "userRatingCount": 530,
      "formattedAddress": "110台灣台北市信義區松仁路217號",
      "location": {
        "latitude": 25.0265536,
        "longitude": 121.56858580000001
      },
      "district": "信義區"
    },
    {
      "id": "ChIJm0vLjrSrQjQRF7F1dnNMvg0",
      "name": "牛轉乾坤牛肉麵",
      "rating": 4.5,
      "userRatingCount": 222,
      "formattedAddress": "110台灣台北市信義區莊敬路325巷48號",
      "location": {
        "latitude": 25.028653199999997,
        "longitude": 121.56455859999998
      },
      "district": "信義區"
    },
    {
      "id": "ChIJi9iMKLWrQjQRxXL2eUUdp3Q",
      "name": "老許牛肉麵",
      "rating": 3,
      "userRatingCount": 1130,
      "formattedAddress": "110台灣台北市信義區吳興街220巷23號",
      "location": {
        "latitude": 25.0273368,
        "longitude": 121.56257049999999
      },
      "district": "信義區"
    },
    {
      "id": "ChIJE79t2zCqQjQRhX-lSMxZYQc",
      "name": "寶祥 原三兩味",
      "rating": 4.2,
      "userRatingCount": 686,
      "formattedAddress": "106台灣台北市大安區和平東路三段240號",
      "location": {
        "latitude": 25.021831799999998,
        "longitude": 121.55495339999997
      },
      "district": "大安區"
    },
    {
      "id": "ChIJUbdZXLWrQjQRt1gtPUfIpEY",
      "name": "旺仔牛肉麵",
      "rating": 4.2,
      "userRatingCount": 289,
      "formattedAddress": "11041台灣台北市信義區吳興街156巷30號",
      "location": {
        "latitude": 25.0284233,
        "longitude": 121.56034260000001
      },
      "district": "信義區"
    },
    {
      "id": "ChIJR1sAVrOrQjQRpJidOIeiAzo",
      "name": "品味刀削麵",
      "rating": 4.3,
      "userRatingCount": 490,
      "formattedAddress": "110台灣台北市信義區吳興街281巷50號",
      "location": {
        "latitude": 25.0263889,
        "longitude": 121.56555559999998
      },
      "district": "信義區"
    },
    {
      "id": "ChIJFcl0TwCrQjQRNJZBPPhXpT8",
      "name": "排骨酥.魯肉飯.牛肉麵(原安居街82號)",
      "rating": 4.4,
      "userRatingCount": 88,
      "formattedAddress": "106台灣台北市大安區嘉興街363巷11號",
      "location": {
        "latitude": 25.021659699999997,
        "longitude": 121.5525206
      },
      "district": "大安區"
    },
    {
      "id": "ChIJQ-ITrrKrQjQRayXMjjhQwIc",
      "name": "素食茄汁牛肉麵",
      "rating": 4.2,
      "userRatingCount": 527,
      "formattedAddress": "110台灣台北市信義區信義路五段150巷302號",
      "location": {
        "latitude": 25.0272201,
        "longitude": 121.5693449
      },
      "district": "信義區"
    },
    {
      "id": "ChIJw4W7VB2qQjQRiefwOZk3JpA",
      "name": "福音小館藥膳牛肉麵",
      "rating": 4.6,
      "userRatingCount": 1193,
      "formattedAddress": "116台灣台北市文山區萬隆街62巷2號",
      "location": {
        "latitude": 25.0009733,
        "longitude": 121.5372589
      },
      "district": "文山區"
    },
    {
      "id": "ChIJPerBpOirQjQRoTn7aMaV-Qo",
      "name": "樂寶原汁牛肉麵",
      "rating": 5,
      "userRatingCount": 16,
      "formattedAddress": "116台灣台北市文山區景美街13號",
      "location": {
        "latitude": 24.9923142,
        "longitude": 121.5417169
      },
      "district": "文山區"
    },
    {
      "id": "ChIJvSdicgCrQjQRKbC4woRkkMQ",
      "name": "萬隆原汁牛肉麵",
      "rating": 3.5,
      "userRatingCount": 177,
      "formattedAddress": "116台灣台北市文山區羅斯福路五段215號1樓",
      "location": {
        "latitude": 25.002184999999997,
        "longitude": 121.53912399999999
      },
      "district": "文山區"
    },
    {
      "id": "ChIJg7qpAROqQjQRftuukB4Y34E",
      "name": "西紅柿麵食店",
      "rating": 3.8,
      "userRatingCount": 1721,
      "formattedAddress": "116台灣台北市文山區興隆路三段112巷2弄2號",
      "location": {
        "latitude": 24.999072599999998,
        "longitude": 121.55726220000001
      },
      "district": "文山區"
    },
    {
      "id": "ChIJkdnIVAqqQjQR5kn8HlcLxyw",
      "name": "大碗公牛肉麵",
      "rating": 4.4,
      "userRatingCount": 626,
      "formattedAddress": "116台灣台北市文山區木柵路一段294號",
      "location": {
        "latitude": 24.9883946,
        "longitude": 121.5566281
      },
      "district": "文山區"
    },
    {
      "id": "ChIJ4TSp-gSqQjQRhacUcDraUho",
      "name": "源興牛肉麵",
      "rating": 4.2,
      "userRatingCount": 400,
      "formattedAddress": "116台灣台北市文山區景興路43號",
      "location": {
        "latitude": 24.9971174,
        "longitude": 121.54487030000001
      },
      "district": "文山區"
    },
    {
      "id": "ChIJL1OUS22qQjQRzmB07BYJ87w",
      "name": "金牛牛肉麵專門店",
      "rating": 4.4,
      "userRatingCount": 809,
      "formattedAddress": "116台灣台北市文山區興隆路三段167號",
      "location": {
        "latitude": 24.996627,
        "longitude": 121.56016400000001
      },
      "district": "文山區"
    },
    {
      "id": "ChIJ-2vY5wSqQjQRnluBlsmtNF8",
      "name": "傳統小吃牛肉麵",
      "rating": 4.2,
      "userRatingCount": 260,
      "formattedAddress": "116台灣台北市文山區景興路27號",
      "location": {
        "latitude": 24.997636699999997,
        "longitude": 121.5448534
      },
      "district": "文山區"
    },
    {
      "id": "ChIJpSmoFhGqQjQRfur6v2LLDwY",
      "name": "老地方黃牛肉麵",
      "rating": 3.9,
      "userRatingCount": 389,
      "formattedAddress": "116台灣台北市文山區興隆路二段220巷6號",
      "location": {
        "latitude": 25.001056,
        "longitude": 121.5523789
      },
      "district": "文山區"
    },
    {
      "id": "ChIJxRXwAROqQjQRCqKicSh5uHs",
      "name": "老溫大餛飩麵店",
      "rating": 3.6,
      "userRatingCount": 799,
      "formattedAddress": "116台灣台北市文山區興隆路三段112巷1號",
      "location": {
        "latitude": 24.998865799999997,
        "longitude": 121.5573052
      },
      "district": "文山區"
    },
    {
      "id": "ChIJNY-ZoyWrQjQRKft5AHQ1Rcs",
      "name": "滿豐牛肉麵",
      "rating": 4.5,
      "userRatingCount": 474,
      "formattedAddress": "116台灣台北市文山區木柵路三段102巷2號",
      "location": {
        "latitude": 24.988455,
        "longitude": 121.56743970000001
      },
      "district": "文山區"
    },
    {
      "id": "ChIJk8NuVmKrQjQRc0pGZEW1vOA",
      "name": "丹丹飯牛肉麵",
      "rating": 3.8,
      "userRatingCount": 5,
      "formattedAddress": "116台灣台北市文山區萬安街25號",
      "location": {
        "latitude": 25.00096,
        "longitude": 121.57061630000001
      },
      "district": "文山區"
    },
    {
      "id": "ChIJV00Woc6rQjQRlcJGBOwKnKI",
      "name": "頂太牛肉麵",
      "rating": 3.8,
      "userRatingCount": 12,
      "formattedAddress": "116台灣台北市文山區萬和街6號2 樓 之 4",
      "location": {
        "latitude": 25.0017635,
        "longitude": 121.5674002
      },
      "district": "文山區"
    },
    {
      "id": "ChIJtbEnLCSrQjQR6YWsrcemWys",
      "name": "十一香牛肉麵（木柵店）",
      "rating": 5,
      "userRatingCount": 592,
      "formattedAddress": "116台灣台北市文山區木柵路二段66號",
      "location": {
        "latitude": 24.9886368,
        "longitude": 121.5593248
      },
      "district": "文山區"
    },
    {
      "id": "ChIJ4SUwKxqrQjQR7iUm9iRSH3g",
      "name": "阿義師牛肉麵（政大店）",
      "rating": 4.6,
      "userRatingCount": 645,
      "formattedAddress": "11651台灣台北市文山區指南路二段219號",
      "location": {
        "latitude": 24.986721,
        "longitude": 121.57896769999999
      },
      "district": "文山區"
    },
    {
      "id": "ChIJNTMDSnOrQjQRSpntLqLMyOI",
      "name": "十一香牛肉麵（景美店）",
      "rating": 4.6,
      "userRatingCount": 278,
      "formattedAddress": "116台灣台北市文山區景美街5巷2之1號",
      "location": {
        "latitude": 24.993244699999998,
        "longitude": 121.5417638
      },
      "district": "文山區"
    },
    {
      "id": "ChIJY3nILAWqQjQRo5zKmlnYeK4",
      "name": "蕃茄牛肉麵",
      "rating": 4,
      "userRatingCount": 16,
      "formattedAddress": "116台灣台北市文山區興隆路二段40號",
      "location": {
        "latitude": 24.998815999999998,
        "longitude": 121.546019
      },
      "district": "文山區"
    },
    {
      "id": "ChIJ67GHrAGqQjQRGgyPut0E4as",
      "name": "孫爸麵館",
      "rating": 4.3,
      "userRatingCount": 394,
      "formattedAddress": "116台灣台北市文山區萬慶街25號",
      "location": {
        "latitude": 24.992528399999998,
        "longitude": 121.53960479999999
      },
      "district": "文山區"
    },
    {
      "id": "ChIJ214oqxqqQjQRPg46DeIvo-A",
      "name": "仙岩牛肉麵",
      "rating": 4,
      "userRatingCount": 159,
      "formattedAddress": "116台灣台北市文山區仙岩路12號",
      "location": {
        "latitude": 24.9983716,
        "longitude": 121.54822929999999
      },
      "district": "文山區"
    },
    {
      "id": "ChIJJ5sxmACqQjQRWzYYOYQE7pw",
      "name": "景美祖傳牛肉麵",
      "rating": 3.9,
      "userRatingCount": 282,
      "formattedAddress": "116台灣台北市文山區景文街133號",
      "location": {
        "latitude": 24.9901376,
        "longitude": 121.54116089999998
      },
      "district": "文山區"
    },
    {
      "id": "ChIJG12ijLerQjQRlSIcOK1t2Qs",
      "name": "樂食蜀川味麵館",
      "rating": 4.1,
      "userRatingCount": 251,
      "formattedAddress": "116台灣台北市文山區景美街1-8號",
      "location": {
        "latitude": 24.9940525,
        "longitude": 121.5417758
      },
      "district": "文山區"
    },
    {
      "id": "ChIJg0f7bP0BaDQRhdhkOZesb-0",
      "name": "牛霸天牛肉麵",
      "rating": 4.6,
      "userRatingCount": 215,
      "formattedAddress": "116台灣台北市文山區木柵路一段73號",
      "location": {
        "latitude": 24.986998,
        "longitude": 121.54648989999998
      },
      "district": "文山區"
    },
    {
      "id": "ChIJIY8uogCqQjQRVp9ZL3d6qOU",
      "name": "吃得飽家常牛肉麵",
      "rating": 3.8,
      "userRatingCount": 565,
      "formattedAddress": "116台灣台北市文山區景美街131號",
      "location": {
        "latitude": 24.989730599999998,
        "longitude": 121.5415271
      },
      "district": "文山區"
    },
    {
      "id": "ChIJCblJNgGqQjQR0VZF8rEqa88",
      "name": "小放牛麵食店",
      "rating": 3.5,
      "userRatingCount": 647,
      "formattedAddress": "116台灣台北市文山區景中街21號",
      "location": {
        "latitude": 24.9930204,
        "longitude": 121.54220640000001
      },
      "district": "文山區"
    },
    {
      "id": "ChIJT18kGXeqQjQR1C99nQ3pX1o",
      "name": "牛大哥",
      "rating": 4.3,
      "userRatingCount": 436,
      "formattedAddress": "116台灣台北市文山區永安街22巷27號",
      "location": {
        "latitude": 24.9866679,
        "longitude": 121.56881299999998
      },
      "district": "文山區"
    },
    {
      "id": "ChIJG9H6kN8BaDQRYl3kHtvNbeU",
      "name": "老饒牛肉麵店",
      "rating": 3.7,
      "userRatingCount": 659,
      "formattedAddress": "116台灣台北市文山區木新路二段263號",
      "location": {
        "latitude": 24.98303,
        "longitude": 121.56634509999999
      },
      "district": "文山區"
    },
    {
      "id": "ChIJk0I0M3qqQjQRdH6L0JFlZXA",
      "name": "吃香原味牛肉麵食館",
      "rating": 4.1,
      "userRatingCount": 222,
      "formattedAddress": "116台灣台北市文山區保儀路26巷2號",
      "location": {
        "latitude": 24.9882261,
        "longitude": 121.5683363
      },
      "district": "文山區"
    },
    {
      "id": "ChIJq3z6QCCrQjQRtru38OXQfy0",
      "name": "一碗麵舖",
      "rating": 3.7,
      "userRatingCount": 455,
      "formattedAddress": "116台灣台北市文山區興隆路三段112巷13號",
      "location": {
        "latitude": 24.998118599999998,
        "longitude": 121.5569101
      },
      "district": "文山區"
    },
    {
      "id": "ChIJxW-1BUSrQjQRhPD1XP9YbJA",
      "name": "政大原汁牛肉麵",
      "rating": 3.3,
      "userRatingCount": 57,
      "formattedAddress": "116011台灣台北市文山區指南路二段59號",
      "location": {
        "latitude": 24.987978899999998,
        "longitude": 121.57462149999999
      },
      "district": "文山區"
    },
    {
      "id": "ChIJXebTCnaqQjQRlauZlM5CGbk",
      "name": "林老師牛肉飯（暫時休暑假 會再公告營業時間）",
      "rating": 4.2,
      "userRatingCount": 196,
      "formattedAddress": "116台灣台北市文山區忠順街二段88號",
      "location": {
        "latitude": 24.984906,
        "longitude": 121.56567899999999
      },
      "district": "文山區"
    },
    {
      "id": "ChIJ_3iJrN8BaDQRceh2t6AhCag",
      "name": "麵妃精選麵食",
      "rating": 4.5,
      "userRatingCount": 1968,
      "formattedAddress": "116台灣台北市文山區木新路三段115號1樓",
      "location": {
        "latitude": 24.9819541,
        "longitude": 121.5623276
      },
      "district": "文山區"
    },
    {
      "id": "ChIJHUxCx3eqQjQRyOrFMXPJUVU",
      "name": "品佳牛肉麵",
      "rating": 4.1,
      "userRatingCount": 168,
      "formattedAddress": "116台灣台北市文山區木新路二段129號",
      "location": {
        "latitude": 24.9840666,
        "longitude": 121.56933459999999
      },
      "district": "文山區"
    },
    {
      "id": "ChIJ7zmPOQuqQjQR26mIVTeMUHY",
      "name": "全家牛肉麵",
      "rating": 4,
      "userRatingCount": 128,
      "formattedAddress": "116台灣台北市文山區木柵路二段5號",
      "location": {
        "latitude": 24.988854300000003,
        "longitude": 121.559042
      },
      "district": "文山區"
    },
    {
      "id": "ChIJjVJZrvCrQjQRgVbFi8RKHlU",
      "name": "大隻佬 麵料理",
      "rating": 4.6,
      "userRatingCount": 1033,
      "formattedAddress": "116台灣台北市文山區指南路二段46號",
      "location": {
        "latitude": 24.987685100000004,
        "longitude": 121.57520059999999
      },
      "district": "文山區"
    }
  ]
}